[
 {
  "hasaande": false, 
  "name": "Ottery St Mary Hospital", 
  "url": "http://www.devonpct.nhs.uk", 
  "telephone": "01404 816000", 
  "longitude": "-3.29164510561732", 
  "postcode": "EX11 1DN", 
  "address": "Devon", 
  "latitude": "50.7500950427573"
 }, 
 {
  "hasaande": false, 
  "name": "Livingstone Hospital", 
  "longitude": "0.226900431692557", 
  "postcode": "DA1 1SA", 
  "address": "Kent", 
  "latitude": "51.4425771868535"
 }, 
 {
  "hasaande": false, 
  "name": "Gravesham Community Hospital", 
  "longitude": "0.365652496349766", 
  "postcode": "DA11 0DG", 
  "address": "Kent", 
  "latitude": "51.4431714133113"
 }, 
 {
  "hasaande": false, 
  "name": "11 Church Road", 
  "url": "http://www.sabp.nhs.uk", 
  "telephone": "01483 782900", 
  "longitude": "-0.742903347601302", 
  "postcode": "GU16 7AD", 
  "address": "Surrey", 
  "latitude": "51.3149585173065"
 }, 
 {
  "hasaande": false, 
  "name": "B1 Bsmht HQ", 
  "url": "http://www.bsmhft.nhs.uk", 
  "telephone": "0121 301 1111", 
  "longitude": "-1.91736", 
  "postcode": "B1 3RB", 
  "address": "West Midlands", 
  "latitude": "52.4841"
 }, 
 {
  "hasaande": false, 
  "name": "Crewkerne Hospital", 
  "url": "http://www.somerset.nhs.uk/pct/hospitals/crewkerne.html", 
  "telephone": "01460 72491", 
  "longitude": "-2.79798016330655", 
  "postcode": "TA18 8BG", 
  "address": "Somerset", 
  "latitude": "50.880152089838"
 }, 
 {
  "hasaande": false, 
  "name": "Devizes Community Hospital", 
  "telephone": "01380 723511", 
  "longitude": "-1.99330426468654", 
  "postcode": "SN10 1EF", 
  "address": "Wiltshire", 
  "latitude": "51.35451214279"
 }, 
 {
  "hasaande": false, 
  "name": "Victoria Hospital Site (Sidmouth)", 
  "url": "http://www.devonpct.nhs.uk", 
  "telephone": "01395 512482", 
  "longitude": "-3.2396669391467", 
  "postcode": "EX10 8EW", 
  "address": "Devon", 
  "latitude": "50.6815336038687"
 }, 
 {
  "hasaande": false, 
  "name": "Shepton Mallet Community Hospital", 
  "url": "http://www.somerset.nhs.uk/pct/hospitals/shepton.html", 
  "telephone": "01749 342931", 
  "longitude": "-2.56248847421603", 
  "postcode": "BA4 4PG", 
  "address": "Somerset", 
  "latitude": "51.1905090555342"
 }, 
 {
  "hasaande": false, 
  "name": "Mile End Hospital", 
  "url": "http://www.thpct.nhs.uk", 
  "telephone": "020 7377 7000", 
  "longitude": "-0.0426136336080421", 
  "postcode": "E1 4DG", 
  "address": "Greater London", 
  "latitude": "51.5244404191508"
 }, 
 {
  "hasaande": false, 
  "name": "Mount Gould Hospital", 
  "telephone": "0845 155 8100", 
  "longitude": "-4.11513646785344", 
  "postcode": "PL4 7QD", 
  "address": "Devon", 
  "latitude": "50.3784302990709"
 }, 
 {
  "hasaande": false, 
  "name": "Bromyard Community Hospital", 
  "url": "http://www.herefordshire.nhs.uk", 
  "telephone": "01885 485700", 
  "longitude": "-2.50681581573467", 
  "postcode": "HR7 4QN", 
  "address": "Herefordshire", 
  "latitude": "52.18624476859"
 }, 
 {
  "hasaande": false, 
  "name": "Ross Community Hospital", 
  "url": "http://www.herefordshire.nhs.uk", 
  "telephone": "01989 562100", 
  "longitude": "-2.58345139199585", 
  "postcode": "HR9 5AD", 
  "address": "Herefordshire", 
  "latitude": "51.9125181074126"
 }, 
 {
  "hasaande": false, 
  "name": "Teignmouth Hospital", 
  "url": "http://www.devonpct.nhs.uk", 
  "telephone": "01626 772161", 
  "longitude": "-3.51124315795265", 
  "postcode": "TQ14 9BQ", 
  "address": "Devon", 
  "latitude": "50.5482834433508"
 }, 
 {
  "hasaande": false, 
  "name": "Verrington Hospital", 
  "url": "http://www.somerset.nhs.uk/pct/hospitals/verrington.html", 
  "telephone": "01963 828444", 
  "longitude": "-2.4182376537097", 
  "postcode": "BA9 9DQ", 
  "address": "Somerset", 
  "latitude": "51.0587000649314"
 }, 
 {
  "hasaande": false, 
  "name": "Dawlish Hospital", 
  "url": "http://www.devonpct.nhs.uk", 
  "telephone": "01626 868500", 
  "longitude": "-3.47481498434461", 
  "postcode": "EX7 9DH", 
  "address": "Devon", 
  "latitude": "50.5805219362334"
 }, 
 {
  "hasaande": false, 
  "name": "Leominster Community Hospital", 
  "url": "www.herefordshire.nhs.uk", 
  "telephone": "01568 614211", 
  "longitude": "-2.73938653173795", 
  "postcode": "HR6 8JH", 
  "address": "Herefordshire", 
  "latitude": "52.2221579032459"
 }, 
 {
  "hasaande": false, 
  "name": "St Marks Hospital", 
  "url": "http://www.berkshireeast-pct.nhs.uk", 
  "telephone": "01628 632012", 
  "longitude": "-0.745673896444241", 
  "postcode": "SL6 6DU", 
  "address": "Berkshire", 
  "latitude": "51.5245872682179"
 }, 
 {
  "hasaande": false, 
  "name": "Tiverton and District Hospital", 
  "url": "http://devonpct.nhs.uk", 
  "telephone": "01884 235400", 
  "longitude": "-3.49302896442693", 
  "postcode": "EX16 6NT", 
  "address": "Devon", 
  "latitude": "50.9093784692965"
 }, 
 {
  "hasaande": false, 
  "name": "Budleigh Salterton Hospital", 
  "url": "http://www.devonpct.nhs.uk", 
  "telephone": "01395 442020", 
  "longitude": "-3.32059849095243", 
  "postcode": "EX9 6HF", 
  "address": "Devon", 
  "latitude": "50.6315332040496"
 }, 
 {
  "hasaande": false, 
  "name": "Savernake Hospital Site", 
  "telephone": "01672 517200", 
  "longitude": "-1.70488896153388", 
  "postcode": "SN8 3HL", 
  "address": "Wiltshire", 
  "latitude": "51.4159326189014"
 }, 
 {
  "hasaande": false, 
  "name": "South Petherton Hospital", 
  "url": "http://www.somerset.nhs.uk/pct/hospitals/southpetherton.html", 
  "telephone": "01460 240333", 
  "longitude": "-2.80047190169314", 
  "postcode": "TA13 5AR", 
  "address": "Somerset", 
  "latitude": "50.9531975479168"
 }, 
 {
  "hasaande": false, 
  "name": "Crediton Hospital", 
  "telephone": "01363 775588", 
  "longitude": "-3.67284842192291", 
  "postcode": "EX17 3NH", 
  "address": "Devon", 
  "latitude": "50.7917660268835"
 }, 
 {
  "hasaande": false, 
  "name": "King Edward Vii Hospital", 
  "telephone": "01753 860441", 
  "longitude": "-0.614718786209292", 
  "postcode": "SL4 3DP", 
  "address": "Berkshire", 
  "latitude": "51.4735316041721"
 }, 
 {
  "hasaande": false, 
  "name": "Upton Hospital", 
  "url": "http://www.berkshireeast-pct.nhs.uk", 
  "telephone": "01753 821441", 
  "longitude": "-0.593755654986053", 
  "postcode": "SL1 2BJ", 
  "address": "Berkshire", 
  "latitude": "51.5052817385289"
 }, 
 {
  "hasaande": false, 
  "name": "Honiton Hospital", 
  "url": "http://www.devonpct.nhs.uk", 
  "telephone": "01404 540540", 
  "longitude": "-3.18665741411142", 
  "postcode": "EX14 2DE", 
  "address": "Devon", 
  "latitude": "50.7948566874829"
 }, 
 {
  "hasaande": false, 
  "name": "Newton Abbot Hospital", 
  "url": "http://www.devonpct.nhs.uk", 
  "telephone": "01626 324500", 
  "longitude": "-3.612237", 
  "postcode": "TQ12 2TS", 
  "address": "Devon", 
  "latitude": "50.539261"
 }, 
 {
  "hasaande": false, 
  "name": "Chard Hospital", 
  "url": "http://www.somerset.nhs.uk/pct/hospitals/chard.html", 
  "telephone": "(01460) 238220", 
  "longitude": "-2.95236869208846", 
  "postcode": "TA20 1NF", 
  "address": "Somerset", 
  "latitude": "50.8749884668254"
 }, 
 {
  "hasaande": false, 
  "name": "Heavitree Hospital", 
  "url": "www.rdehospital.nhs.uk", 
  "telephone": "01392 411 611", 
  "longitude": "-3.51407811334502", 
  "postcode": "EX1 2ED", 
  "address": "Devon", 
  "latitude": "50.7243213239242"
 }, 
 {
  "hasaande": false, 
  "name": "Edgware Community Hospital", 
  "telephone": "020 8952 2381", 
  "longitude": "-0.271833738281984", 
  "postcode": "HA8 0AD", 
  "address": "Middlesex", 
  "latitude": "51.6058050476385"
 }, 
 {
  "hasaande": false, 
  "name": "Edgware Hospital", 
  "url": "http://www.barnetandchase.nhs.uk/", 
  "telephone": "(020) 8366 6600", 
  "longitude": "-0.271833738281984", 
  "postcode": "HA8 0AD", 
  "address": "Middlesex", 
  "latitude": "51.6058050476385"
 }, 
 {
  "hasaande": false, 
  "name": "BMI - The Shelburne Hospital", 
  "url": "http://www.bmihealthcare.co.uk/shelburne", 
  "telephone": "01494 888700", 
  "longitude": "-0.753556788520083", 
  "postcode": "HP11 2TR", 
  "address": "Buckinghamshire", 
  "latitude": "51.6258243320959"
 }, 
 {
  "hasaande": false, 
  "name": "Wycombe Hospital", 
  "url": "http://www.buckshospitals.nhs.uk", 
  "telephone": "01494 526 161", 
  "longitude": "-0.753384913212922", 
  "postcode": "HP11 2TT", 
  "address": "Buckinghamshire", 
  "latitude": "51.6261658415544"
 }, 
 {
  "hasaande": false, 
  "name": "Harefield Hospital", 
  "url": "http://www.rbht.nhs.uk/", 
  "telephone": "01895 823 737", 
  "longitude": "-0.482754035276799", 
  "postcode": "UB9 6JH", 
  "address": "Middlesex", 
  "latitude": "51.6066622363794"
 }, 
 {
  "hasaande": false, 
  "name": "Chalfont's and Gerrards Cross Hospital", 
  "longitude": "-0.561795438951419", 
  "postcode": "SL9 9DR", 
  "address": "Buckinghamshire", 
  "latitude": "51.6073486703909"
 }, 
 {
  "hasaande": false, 
  "name": "Mount Vernon Hospital Site", 
  "url": "http://www.thh.nhs.uk", 
  "telephone": "01923 826111", 
  "longitude": "-0.445810796036243", 
  "postcode": "HA6 2RN", 
  "address": "Middlesex", 
  "latitude": "51.6149096898021"
 }, 
 {
  "hasaande": false, 
  "name": "Mount Vernon Cancer Centre", 
  "url": "http://www.enherts-tr.nhs.uk/", 
  "telephone": "01923 826 111", 
  "longitude": "-0.445896683424928", 
  "postcode": "HA6 2RN", 
  "address": "Middlesex", 
  "latitude": "51.6171465767554"
 }, 
 {
  "hasaande": false, 
  "name": "BMI - The Hampshire Clinic", 
  "url": "http://www.bmihealthcare.co.uk/hampshire", 
  "telephone": "01256 357111", 
  "longitude": "-1.0571789208904", 
  "postcode": "RG24 7AL", 
  "address": "Hampshire", 
  "latitude": "51.2715219292798"
 }, 
 {
  "hasaande": false, 
  "name": "Havant NHS Diagnostic Centre", 
  "url": "http://www.havantdiagnosticcentre.nhs.uk", 
  "telephone": "02392 476672", 
  "longitude": "-0.980225", 
  "postcode": "PO9 2AY", 
  "address": "Hampshire", 
  "latitude": "50.8572"
 }, 
 {
  "hasaande": false, 
  "name": "Alton Community Hospital", 
  "telephone": "01420 82811", 
  "longitude": "-0.98982183645155", 
  "postcode": "GU34 1RJ", 
  "address": "Hampshire", 
  "latitude": "51.1400373726624"
 }, 
 {
  "hasaande": false, 
  "name": "Havant War Memorial Hospital", 
  "url": "http://www.hchc.nhs.uk/our-hospitals/havant-war-memorial-hospital", 
  "telephone": "023 9248 4256", 
  "longitude": "-0.98990785414641", 
  "postcode": "PO9 1NG", 
  "address": "Hampshire", 
  "latitude": "50.8542554276"
 }, 
 {
  "hasaande": false, 
  "name": "Assura Hampshire Heath Llp", 
  "longitude": "-1.0865758416347184", 
  "postcode": "RG21 7AH", 
  "address": "Hampshire", 
  "latitude": "51.267809721465909"
 }, 
 {
  "hasaande": true, 
  "name": "Basingstoke and North Hampshire Hospital", 
  "url": "http://www.northhampshire.nhs.uk", 
  "telephone": "01256 473 202", 
  "longitude": "-1.10984458858966", 
  "postcode": "RG24 9NA", 
  "address": "Hampshire", 
  "latitude": "51.2805514393625"
 }, 
 {
  "hasaande": false, 
  "name": "West Berkshire Community Hospital", 
  "url": "http://www.berkshirewest-pct.nhs.uk", 
  "telephone": "01635 273 300", 
  "longitude": "-1.29224116183684", 
  "postcode": "RG18 3AS", 
  "address": "Berkshire", 
  "latitude": "51.406117637064"
 }, 
 {
  "hasaande": true, 
  "name": "Kingston Hospital", 
  "url": "http://www.kingstonhospital.nhs.uk/", 
  "telephone": "020 8546 7711", 
  "longitude": "-0.283088556012843", 
  "postcode": "KT2 7QB", 
  "address": "Surrey", 
  "latitude": "51.4142967885952"
 }, 
 {
  "hasaande": false, 
  "name": "Cassel Hospital", 
  "url": "http://www.thecasselhospital.org/", 
  "telephone": "020 8483 2900", 
  "longitude": "-0.308089689737308", 
  "postcode": "TW10 7JF", 
  "address": "Surrey", 
  "latitude": "51.4328612427593"
 }, 
 {
  "hasaande": false, 
  "name": "Wokingham Hospital", 
  "url": "http://www.berkshirewest-pct.nhs.uk", 
  "telephone": "0118 949 5000", 
  "longitude": "-0.84483484961875", 
  "postcode": "RG41 2RE", 
  "address": "Berkshire", 
  "latitude": "51.4092492787984"
 }, 
 {
  "hasaande": false, 
  "name": "Windsor Dialysis Centre", 
  "longitude": "-0.620990607414656", 
  "postcode": "SL4 5EH", 
  "address": "Berkshire", 
  "latitude": "51.4828206614432"
 }, 
 {
  "hasaande": false, 
  "name": "Surbiton Hospital", 
  "longitude": "-0.29967004084224", 
  "postcode": "KT6 6EZ", 
  "address": "Surrey", 
  "latitude": "51.3910639001334"
 }, 
 {
  "hasaande": false, 
  "name": "BMI - The Princess Margaret Hospital", 
  "url": "http://www.bmihealthcare.co.uk/pmh", 
  "telephone": "01753 743434", 
  "longitude": "-0.610337113135024", 
  "postcode": "SL4 3SJ", 
  "address": "Berkshire", 
  "latitude": "51.474651755196"
 }, 
 {
  "hasaande": false, 
  "name": "Teddington Memorial Hospital", 
  "url": "http://www.richmondandtwickenham.nhs.uk", 
  "telephone": "020 8714 4000", 
  "longitude": "-0.340909015503485", 
  "postcode": "TW11 0JL", 
  "address": "Middlesex", 
  "latitude": "51.4260686196297"
 }, 
 {
  "hasaande": false, 
  "name": "Odiham Cottage Hospital", 
  "telephone": "01256 393600", 
  "longitude": "-0.939565192629782", 
  "postcode": "RG29 1NE", 
  "address": "Hampshire", 
  "latitude": "51.2510487905105"
 }, 
 {
  "hasaande": false, 
  "name": "Tolworth Hospital", 
  "url": "http://www.swlstg-tr.nhs.uk", 
  "telephone": "020 8390 0102", 
  "longitude": "-0.290219460269322", 
  "postcode": "KT6 7QU", 
  "address": "Surrey", 
  "latitude": "51.3792749936258"
 }, 
 {
  "hasaande": false, 
  "name": "Ashford Hospital", 
  "url": "http://www.ashfordstpeters.nhs.uk", 
  "telephone": "01784 884488", 
  "longitude": "-0.471585128519094", 
  "postcode": "TW15 3AA", 
  "address": "Middlesex", 
  "latitude": "51.4448926209822"
 }, 
 {
  "hasaande": false, 
  "name": "East Elmbridge Camhs", 
  "url": "http://www.sabp.nhs.uk", 
  "telephone": "0208 224 7878", 
  "longitude": "-0.334980914148988", 
  "postcode": "KT7 0EB", 
  "address": "Surrey", 
  "latitude": "51.3864193714978"
 }, 
 {
  "hasaande": false, 
  "name": "Spelthorne Adult Mh", 
  "url": "http://www.sabp.nhs.uk", 
  "telephone": "01784 884409", 
  "longitude": "-0.471632", 
  "postcode": "TW15 3AA", 
  "address": "Middlesex", 
  "latitude": "51.444915"
 }, 
 {
  "hasaande": false, 
  "name": "Heatherwood Hospital", 
  "url": "http://www.heatherwoodandwexham.nhs.uk/", 
  "telephone": "01344 623 333", 
  "longitude": "-0.687316600093094", 
  "postcode": "SL5 8AA", 
  "address": "Berkshire", 
  "latitude": "51.4101611090527"
 }, 
 {
  "hasaande": false, 
  "name": "Molesey Hospital", 
  "longitude": "-0.372525641006355", 
  "postcode": "KT8 2LU", 
  "address": "Surrey", 
  "latitude": "51.3975115987098"
 }, 
 {
  "hasaande": false, 
  "name": "West Elmbridge Cmht", 
  "url": "http://www.sabp.nhs.uk", 
  "telephone": "01932 266900", 
  "longitude": "-0.425534899237384", 
  "postcode": "KT12 1AP", 
  "address": "Surrey", 
  "latitude": "51.3864159564031"
 }, 
 {
  "hasaande": false, 
  "name": "Walton Community Hospital", 
  "telephone": ".", 
  "longitude": "-0.406032307918618", 
  "postcode": "KT12 3LD", 
  "address": "Surrey", 
  "latitude": "51.3799648427321"
 }, 
 {
  "hasaande": false, 
  "name": "Broadmoor Hospital", 
  "telephone": "01344 773 111", 
  "longitude": "-0.781307100065903", 
  "postcode": "RG45 7EG", 
  "address": "Berkshire", 
  "latitude": "51.3690399551546"
 }, 
 {
  "hasaande": false, 
  "name": "Spire Clare Park Hospital", 
  "url": "http://www.spirehealthcare.com/clarepark", 
  "telephone": "01252 895421", 
  "longitude": "-0.87004283668944693", 
  "postcode": "GU10 5XX", 
  "address": "Surrey", 
  "latitude": "51.245877984041"
 }, 
 {
  "hasaande": false, 
  "name": "Fleet Community Hospital", 
  "telephone": "01483 782700", 
  "longitude": "-0.848664184504748", 
  "postcode": "GU51 4LZ", 
  "address": "Hampshire", 
  "latitude": "51.2875148172214"
 }, 
 {
  "hasaande": false, 
  "name": "Briarwood", 
  "url": "http://www.sabp.nhs.uk", 
  "telephone": "01483 783550", 
  "longitude": "-0.794709852208173", 
  "postcode": "GU14 9XW", 
  "address": "Hampshire", 
  "latitude": "51.2987846293519"
 }, 
 {
  "hasaande": false, 
  "name": "Weybridge Community Hospital", 
  "telephone": ".", 
  "longitude": "-0.460759919014859", 
  "postcode": "KT13 8DY", 
  "address": "Surrey", 
  "latitude": "51.3733395592372"
 }, 
 {
  "hasaande": false, 
  "name": "Spenser Ward", 
  "url": "http://www.sabp.nhs.uk", 
  "telephone": "01932 722468", 
  "longitude": "-0.529405648644284", 
  "postcode": "KT16 0AE", 
  "address": "Surrey", 
  "latitude": "51.3791009409102"
 }, 
 {
  "hasaande": false, 
  "name": "Surrey Heath Cmht", 
  "url": "http://www.sabp.nhs.uk", 
  "telephone": "01276 671102", 
  "longitude": "-0.749565616401551", 
  "postcode": "GU15 3PX", 
  "address": "Surrey", 
  "latitude": "51.3346095191457"
 }, 
 {
  "hasaande": false, 
  "name": "Surrey Heath Elderley Cmht", 
  "url": "http://www.sabp.nhs.uk", 
  "telephone": "01276 605379", 
  "longitude": "-0.749565616401551", 
  "postcode": "GU15 3PX", 
  "address": "Surrey", 
  "latitude": "51.3346095191457"
 }, 
 {
  "hasaande": false, 
  "name": "Conifers Cmht", 
  "url": "http://www.sabp.nhs.uk", 
  "telephone": "01883 385481", 
  "longitude": "-0.794709852208173", 
  "postcode": "GU14 9XW", 
  "address": "Hampshire", 
  "latitude": "51.2987846293519"
 }, 
 {
  "hasaande": false, 
  "name": "Hayworth House Site", 
  "url": "http://www.sabp.nhs.uk", 
  "telephone": "01932 722276", 
  "longitude": "-0.529405648644284", 
  "postcode": "KT16 0AE", 
  "address": "Surrey", 
  "latitude": "51.3791009409102"
 }, 
 {
  "hasaande": false, 
  "name": "Abraham Cowley Unit", 
  "url": "http://www.sabp.nhs.uk", 
  "telephone": "01932 872010", 
  "longitude": "-0.529405648644284", 
  "postcode": "KT16 0AE", 
  "address": "Surrey", 
  "latitude": "51.3791009409102"
 }, 
 {
  "hasaande": false, 
  "name": "Clare Ward", 
  "url": "http://www.sabp.nhs.uk", 
  "telephone": "01932 872010", 
  "longitude": "-0.529405648644284", 
  "postcode": "KT16 0AE", 
  "address": "Surrey", 
  "latitude": "51.3791009409102"
 }, 
 {
  "hasaande": false, 
  "name": "Blake Ward", 
  "url": "http://www.sabp.nhs.uk", 
  "telephone": "01932 872010", 
  "longitude": "-0.529405648644284", 
  "postcode": "KT16 0AE", 
  "address": "Surrey", 
  "latitude": "51.3791009409102"
 }, 
 {
  "hasaande": false, 
  "name": "Learning Disability", 
  "url": "http://www.sabp.nhs.uk", 
  "telephone": "01883 383838", 
  "longitude": "-0.529405648644284", 
  "postcode": "KT16 0AE", 
  "address": "Surrey", 
  "latitude": "51.3791009409102"
 }, 
 {
  "hasaande": false, 
  "name": "Adult Mh Specialty", 
  "url": "http://www.sabp.nhs.uk", 
  "telephone": "01883 383838", 
  "longitude": "-0.529405648644284", 
  "postcode": "KT16 0AE", 
  "address": "Surrey", 
  "latitude": "51.3791009409102"
 }, 
 {
  "hasaande": false, 
  "name": "Drug and Alcohol Team", 
  "url": "http://www.sabp.nhs.uk", 
  "telephone": "01883 383838", 
  "longitude": "-0.529405648644284", 
  "postcode": "KT16 0AE", 
  "address": "Surrey", 
  "latitude": "51.3791009409102"
 }, 
 {
  "hasaande": false, 
  "name": "Windmill House Inpatient Dat Unit", 
  "url": "http://www.sabp.nhs.uk", 
  "telephone": "01932 723309", 
  "longitude": "-0.529405648644284", 
  "postcode": "KT16 0AE", 
  "address": "Surrey", 
  "latitude": "51.3791009409102"
 }, 
 {
  "hasaande": false, 
  "name": "BMI - The Runnymede Hospital", 
  "url": "http://www.bmihealthcare.co.uk/runnymede", 
  "telephone": "01932 877800", 
  "longitude": "-0.524336653830659", 
  "postcode": "KT16 0RQ", 
  "address": "Surrey", 
  "latitude": "51.3779840878727"
 }, 
 {
  "hasaande": false, 
  "name": "Woking Adult Mh", 
  "url": "http://www.sabp.nhs.uk", 
  "telephone": "01483 756318", 
  "longitude": "-0.529405648644284", 
  "postcode": "KT16 0AE", 
  "address": "Surrey", 
  "latitude": "51.3791009409102"
 }, 
 {
  "hasaande": false, 
  "name": "West Elmbridge Adult Mh", 
  "url": "http://www.sabp.nhs.uk", 
  "telephone": "01932 266900", 
  "longitude": "-0.529405648644284", 
  "postcode": "KT16 0AE", 
  "address": "Surrey", 
  "latitude": "51.3791009409102"
 }, 
 {
  "hasaande": false, 
  "name": "Runnymede Adult Mh", 
  "url": "http://www.sabp.nhs.uk", 
  "telephone": "01932 723392", 
  "longitude": "-0.529405648644284", 
  "postcode": "KT16 0AE", 
  "address": "Surrey", 
  "latitude": "51.3791009409102"
 }, 
 {
  "hasaande": false, 
  "name": "Older Adult Mh", 
  "url": "http://www.sabp.nhs.uk", 
  "telephone": "01883 383838", 
  "longitude": "-0.529405648644284", 
  "postcode": "KT16 0AE", 
  "address": "Surrey", 
  "latitude": "51.3791009409102"
 }, 
 {
  "hasaande": false, 
  "name": "St Peters Hospital", 
  "url": "http://www.sabp.nhs.uk", 
  "telephone": "01932 872010", 
  "longitude": "-0.526484493289104", 
  "postcode": "KT16 0PZ", 
  "address": "Surrey", 
  "latitude": "51.3752327789264"
 }, 
 {
  "hasaande": false, 
  "name": "Geesemere", 
  "url": "http://www.sabp.nhs.uk", 
  "telephone": "01932 872854", 
  "longitude": "-0.531639460074725", 
  "postcode": "KT16 0QA", 
  "address": "Surrey", 
  "latitude": "51.3760101632027"
 }, 
 {
  "hasaande": false, 
  "name": "Farnham Cmht", 
  "url": "http://www.sabp.nhs.uk", 
  "telephone": "01483 782095", 
  "longitude": "-0.784571893160441", 
  "postcode": "GU9 9QL", 
  "address": "Surrey", 
  "latitude": "51.2194110010072"
 }, 
 {
  "hasaande": false, 
  "name": "Farnham Elderley Cmht", 
  "url": "http://www.sabp.nhs.uk", 
  "telephone": "01483 782070", 
  "longitude": "-0.784571893160441", 
  "postcode": "GU9 9QL", 
  "address": "Surrey", 
  "latitude": "51.2194110010072"
 }, 
 {
  "hasaande": false, 
  "name": "Hale Ward", 
  "url": "http://www.sabp.nhs.uk", 
  "telephone": "01276 605397", 
  "longitude": "-0.784571893160441", 
  "postcode": "GU9 9QL", 
  "address": "Surrey", 
  "latitude": "51.2194110010072"
 }, 
 {
  "hasaande": true, 
  "name": "Frimley Park Hospital", 
  "url": "http://www.frimleypark.nhs.uk/", 
  "telephone": "01276604604", 
  "longitude": "-0.741528665309131", 
  "postcode": "GU16 7UJ", 
  "address": "Surrey", 
  "latitude": "51.3196918384012"
 }, 
 {
  "hasaande": false, 
  "name": "Brook House", 
  "url": "http://www.sabp.nhs.uk", 
  "telephone": "01932 875376", 
  "longitude": "-0.524594386750122", 
  "postcode": "KT16 0JL", 
  "address": "Surrey", 
  "latitude": "51.3645695963429"
 }, 
 {
  "hasaande": false, 
  "name": "Hollies Cmht", 
  "url": "http://www.sabp.nhs.uk", 
  "telephone": "01252 326297", 
  "longitude": "-0.76623393789324", 
  "postcode": "GU11 1DL", 
  "address": "Hampshire", 
  "latitude": "51.2484507974271"
 }, 
 {
  "hasaande": false, 
  "name": "Beech House", 
  "url": "http://www.sabp.nhs.uk", 
  "telephone": "01276 670911", 
  "longitude": "-0.742903347601302", 
  "postcode": "GU16 7AD", 
  "address": "Surrey", 
  "latitude": "51.3149585173065"
 }, 
 {
  "hasaande": false, 
  "name": "Farnham Hospital", 
  "url": "http://www.sabp.nhs.uk", 
  "telephone": "01883 383838", 
  "longitude": "-0.784571893160441", 
  "postcode": "GU9 9QL", 
  "address": "Surrey", 
  "latitude": "51.2194110010072"
 }, 
 {
  "hasaande": false, 
  "name": "Aldershot Centre For Health", 
  "url": "http://www.sabp.nhs.uk", 
  "telephone": "01252 335000", 
  "longitude": "-0.767646721725878", 
  "postcode": "GU11 1AY", 
  "address": "Hampshire", 
  "latitude": "51.2509152485539"
 }, 
 {
  "hasaande": false, 
  "name": "Wingfield Ward", 
  "url": "http://www.sabp.nhs.uk", 
  "telephone": "01276 605316", 
  "longitude": "-0.702953082447297", 
  "postcode": "GU16 9QE", 
  "address": "Surrey", 
  "latitude": "51.3243369758582"
 }, 
 {
  "hasaande": false, 
  "name": "Ridgewood Centre", 
  "url": "http://www.sabp.nhs.uk", 
  "telephone": "01276 692919", 
  "longitude": "-0.702953082447297", 
  "postcode": "GU16 9QE", 
  "address": "Surrey", 
  "latitude": "51.3243369758582"
 }, 
 {
  "hasaande": false, 
  "name": "Priory Hospital Woking", 
  "url": "http://www.prioryhealthcare.com/woking", 
  "telephone": "01483 489211", 
  "longitude": "-0.622623022626289", 
  "postcode": "GU21 2QF", 
  "address": "Surrey", 
  "latitude": "51.3198625931306"
 }, 
 {
  "hasaande": false, 
  "name": "Nuffield Health, Woking Hospital", 
  "url": "http://www.nuffieldhealth.com/wokinghospital", 
  "telephone": "0800 015 50 20", 
  "longitude": "-0.561451795058803", 
  "postcode": "GU21 4BY", 
  "address": "Surrey", 
  "latitude": "51.3321637638257"
 }, 
 {
  "hasaande": false, 
  "name": "The Meadows", 
  "url": "http://www.sabp.nhs.uk", 
  "telephone": "01372 203445", 
  "longitude": "-0.625455346846676", 
  "postcode": "GU21 2RP", 
  "address": "Surrey", 
  "latitude": "51.3080373569188"
 }, 
 {
  "hasaande": false, 
  "name": "Finchley Memorial Hospital", 
  "url": "http://www.barnet.nhs.uk/sites_services/finchley/index.shtm", 
  "telephone": "020 8349 7500", 
  "longitude": "-0.177327705769185", 
  "postcode": "N12 0JE", 
  "address": "Greater London", 
  "latitude": "51.6065802741093"
 }, 
 {
  "hasaande": false, 
  "name": "Bicester Community Hospital - Cherwell Vale", 
  "telephone": "01869 604000", 
  "longitude": "-1.15830029843926", 
  "postcode": "OX26 6DU", 
  "address": "Oxfordshire", 
  "latitude": "51.8970579742263"
 }, 
 {
  "hasaande": false, 
  "name": "Bicester Community Hospital", 
  "url": "http://www.oxfordshirepct.nhs.uk/local-services/community-hospitals/bicester.aspx", 
  "telephone": "01869 604000", 
  "longitude": "-1.15830029843926", 
  "postcode": "OX26 6DU", 
  "address": "Oxfordshire", 
  "latitude": "51.8970579742263"
 }, 
 {
  "hasaande": false, 
  "name": "St Michaels Hospital", 
  "longitude": "-1.59405921713178", 
  "postcode": "CV34 5QW", 
  "address": "Warwickshire", 
  "latitude": "52.2885575872621"
 }, 
 {
  "hasaande": true, 
  "name": "Warwick Hospital", 
  "url": "http://www.warwickhospital.nhs.uk", 
  "telephone": "01926 495321", 
  "longitude": "-1.58323390090584", 
  "postcode": "CV34 5BW", 
  "address": "Warwickshire", 
  "latitude": "52.2900192477446"
 }, 
 {
  "hasaande": true, 
  "name": "Horton General Hospital", 
  "url": "http://www.oxfordradcliffe.nhs.uk/aboutus/hospitals/horton.aspx", 
  "telephone": "01295 275500", 
  "longitude": "-1.33665905594821", 
  "postcode": "OX16 9AL", 
  "address": "Oxfordshire", 
  "latitude": "52.0535034571653"
 }, 
 {
  "hasaande": false, 
  "name": "Royal Leamington Spa Rehabilitation Hospital", 
  "longitude": "-1.54104979881819", 
  "postcode": "CV34 6SR", 
  "address": "Warwickshire", 
  "latitude": "52.2692793783298"
 }, 
 {
  "hasaande": false, 
  "name": "Main Street Resource Centre", 
  "url": "http://www.bsmht.nhs.uk", 
  "telephone": "0121 678 3600", 
  "longitude": "-1.87782300655921", 
  "postcode": "B11 1RS", 
  "address": "West Midlands", 
  "latitude": "52.4625093871853"
 }, 
 {
  "hasaande": true, 
  "name": "Birmingham Children's Hospital", 
  "url": "http://www.bch.org.uk", 
  "telephone": "0121 333 9999", 
  "longitude": "-1.89372928465445", 
  "postcode": "B4 6NH", 
  "address": "West Midlands", 
  "latitude": "52.4848811296704"
 }, 
 {
  "hasaande": false, 
  "name": "Aston University Day Hospital", 
  "url": "http://www.astonacademy.co.uk", 
  "telephone": "0121 204 3800", 
  "longitude": "-1.89097992007011", 
  "postcode": "B4 7ET", 
  "address": "West Midlands", 
  "latitude": "52.4865989222466"
 }, 
 {
  "hasaande": false, 
  "name": "Little Bromwich", 
  "url": "http://www.bsmht.nhs.uk", 
  "telephone": "0121 678 6539", 
  "longitude": "-1.8341043510619", 
  "postcode": "B10 9JH", 
  "address": "West Midlands", 
  "latitude": "52.4727703481315"
 }, 
 {
  "hasaande": true, 
  "name": "Heartlands Hospital", 
  "url": "http://www.heartofengland.nhs.uk", 
  "telephone": "0121 424 2000", 
  "longitude": "-1.82998056780978", 
  "postcode": "B9 5SS", 
  "address": "West Midlands", 
  "latitude": "52.4801546387648"
 }, 
 {
  "hasaande": false, 
  "name": "Azaadi Community Drugs Team", 
  "url": "http://www.bsmhft.nhs.uk", 
  "telephone": "0121 327 7722", 
  "longitude": "-1.84578861375695", 
  "postcode": "B8 2UL", 
  "address": "West Midlands", 
  "latitude": "52.4966563757996"
 }, 
 {
  "hasaande": false, 
  "name": "Harry Watton House", 
  "url": "http://www.bsmht.nhs.uk", 
  "telephone": "0121 685 6001", 
  "longitude": "-1.87749115023298", 
  "postcode": "B6 5UG", 
  "address": "West Midlands", 
  "latitude": "52.5024108101753"
 }, 
 {
  "hasaande": false, 
  "name": "St James's Psychiatric Hospital", 
  "telephone": "023 9289 4409", 
  "longitude": "-1.05013390092663", 
  "postcode": "PO4 8LD", 
  "address": "Hampshire", 
  "latitude": "50.7970047819769"
 }, 
 {
  "hasaande": false, 
  "name": "St James' Hospital", 
  "telephone": "023 9282 2444", 
  "longitude": "-1.05013390092663", 
  "postcode": "PO4 8LD", 
  "address": "Hampshire", 
  "latitude": "50.7970047819769"
 }, 
 {
  "hasaande": true, 
  "name": "Queen Alexandra Hospital", 
  "url": "http://www.porthosp.nhs.uk", 
  "telephone": "023 9228 6000", 
  "longitude": "-1.0693788126868", 
  "postcode": "PO6 3LY", 
  "address": "Hampshire", 
  "latitude": "50.8502119556113"
 }, 
 {
  "hasaande": false, 
  "name": "Portsmouth Drug Interventions Programme", 
  "url": "http://www.sabp.nhs.uk", 
  "telephone": "0203 9268 8678", 
  "longitude": "-1.09128707133644", 
  "postcode": "PO1 2AY", 
  "address": "Hampshire", 
  "latitude": "50.7972609140707"
 }, 
 {
  "hasaande": false, 
  "name": "Andover War Memorial Hospital", 
  "url": "http://www.wehct.nhs.uk", 
  "telephone": "01264 358811", 
  "longitude": "-1.49474186329745", 
  "postcode": "SP10 3LB", 
  "address": "Hampshire", 
  "latitude": "51.2157090384771"
 }, 
 {
  "hasaande": false, 
  "name": "Winchester NHS Treatment Centre", 
  "url": "http://www.winchestertc.nhs.uk/", 
  "telephone": "01962 828333", 
  "longitude": "-1.33098871827663", 
  "postcode": "SO22 5DG", 
  "address": "Hampshire", 
  "latitude": "51.0612750462484"
 }, 
 {
  "hasaande": false, 
  "name": "St Christopher's Hospital", 
  "longitude": "-1.17780304984058", 
  "postcode": "PO16 7JD", 
  "address": "Hampshire", 
  "latitude": "50.860361616718"
 }, 
 {
  "hasaande": false, 
  "name": "Gosport War Memorial Hospital", 
  "url": "http://www.childbirthchoices.co.uk", 
  "telephone": "023 9279 4753", 
  "longitude": "-1.14807663237452", 
  "postcode": "PO12 3PW", 
  "address": "Hampshire", 
  "latitude": "50.7929649233464"
 }, 
 {
  "hasaande": false, 
  "name": "Phoenix Day Hospital", 
  "longitude": "-1.1480766791905", 
  "postcode": "PO12 3PW", 
  "address": "Hampshire", 
  "latitude": "50.7929647250829"
 }, 
 {
  "hasaande": false, 
  "name": "BMI - Sarum Road Hospital", 
  "url": "http://www.bmihealthcare.co.uk/sarumroad", 
  "telephone": "01962 844555", 
  "longitude": "-1.33915058089137", 
  "postcode": "SO22 5HA", 
  "address": "Hampshire", 
  "latitude": "51.0606739896014"
 }, 
 {
  "hasaande": true, 
  "name": "Royal Hampshire County Hospital", 
  "url": "http://www.wehct.nhs.uk/", 
  "telephone": "01962 863535", 
  "longitude": "-1.33098871827663", 
  "postcode": "SO22 5DG", 
  "address": "Hampshire", 
  "latitude": "51.0612750462484"
 }, 
 {
  "hasaande": false, 
  "name": "Warminster Community Hospital", 
  "telephone": "01985 212076", 
  "longitude": "-2.18102753171269", 
  "postcode": "BA12 8QS", 
  "address": "Wiltshire", 
  "latitude": "51.2068502831235"
 }, 
 {
  "hasaande": false, 
  "name": "Moorgreen Hospital", 
  "url": "http://www.southamptonhealth.nhs.uk", 
  "telephone": "023 8047 2258", 
  "longitude": "-1.3252324696319", 
  "postcode": "SO30 3JB", 
  "address": "Hampshire", 
  "latitude": "50.9277653385422"
 }, 
 {
  "hasaande": false, 
  "name": "Countess Mountbatten House", 
  "url": "http://www.suht.nhs.uk/cmh", 
  "telephone": "023 8047 7414", 
  "longitude": "-1.3252324696319", 
  "postcode": "SO30 3JB", 
  "address": "Hampshire", 
  "latitude": "50.9277653385422"
 }, 
 {
  "hasaande": false, 
  "name": "Coldeast Hospital", 
  "longitude": "-1.28382167302433", 
  "postcode": "SO31 7EN", 
  "address": "Hampshire", 
  "latitude": "50.8755895234724"
 }, 
 {
  "hasaande": false, 
  "name": "Romsey Hospital", 
  "url": "http://www.hchc.nhs.uk/our-hospitals/romsey-hospital", 
  "telephone": "01794 834700", 
  "longitude": "-1.48202661238382", 
  "postcode": "SO51 7ZA", 
  "address": "Hampshire", 
  "latitude": "50.9920305884429"
 }, 
 {
  "hasaande": false, 
  "name": "The Royal South Hants Hospital", 
  "url": "http://www.royalsouthhantshospital.nhs.uk", 
  "telephone": "023 80777222", 
  "longitude": "-1.397076", 
  "postcode": "SO14 0YG", 
  "address": "Hampshire", 
  "latitude": "50.912389"
 }, 
 {
  "hasaande": false, 
  "name": "Southampton NHS Treatment Centre", 
  "url": "http://www.southamptontreatmentcentre.nhs.uk", 
  "telephone": "0333 200 1820", 
  "longitude": "-1.397076", 
  "postcode": "SO14 0YG", 
  "address": "Hampshire", 
  "latitude": "50.912389"
 }, 
 {
  "hasaande": true, 
  "name": "Southampton General Hospital", 
  "url": "http://www.suht.nhs.uk", 
  "telephone": "023 8077 7222", 
  "longitude": "-1.43511708660759", 
  "postcode": "SO16 6YD", 
  "address": "Hampshire", 
  "latitude": "50.9329221313656"
 }, 
 {
  "hasaande": false, 
  "name": "Spire Southampton Hospital", 
  "url": "http://www.spirehealthcare.com/southampton", 
  "telephone": "023 8077 5544", 
  "longitude": "-1.43271147263757", 
  "postcode": "SO16 6UY", 
  "address": "Hampshire", 
  "latitude": "50.9305179047778"
 }, 
 {
  "hasaande": false, 
  "name": "Princess Anne Hospital", 
  "url": "http://www.suht.nhs.uk", 
  "telephone": "023 8077 7222", 
  "longitude": "-1.43485935368813", 
  "postcode": "SO16 5YA", 
  "address": "Hampshire", 
  "latitude": "50.9352409805888"
 }, 
 {
  "hasaande": false, 
  "name": "Priory Hospital Marchwood", 
  "url": "http://www.prioryhealthcare.com/marchwood", 
  "telephone": "023 8084 0044", 
  "longitude": "-1.4503240759078", 
  "postcode": "SO40 4WU", 
  "address": "Hampshire", 
  "latitude": "50.884629278839"
 }, 
 {
  "hasaande": false, 
  "name": "Hythe Hospital", 
  "url": "http://www.hchc.nhs.uk/our-hospitals/hythe-hospital", 
  "telephone": "023 8084 6046", 
  "longitude": "-1.40350056782642", 
  "postcode": "SO45 4ZB", 
  "address": "Hampshire", 
  "latitude": "50.8585550316824"
 }, 
 {
  "hasaande": false, 
  "name": "Western Community Hospital", 
  "url": "http://www.southamptonhealth.nhs.uk", 
  "telephone": "023 8047 5401", 
  "longitude": "-1.44602831380669", 
  "postcode": "SO16 4XE", 
  "address": "Hampshire", 
  "latitude": "50.925190357225"
 }, 
 {
  "hasaande": false, 
  "name": "New Forest Birth Centre Health Authority", 
  "url": "http://www.suht.nhs.uk", 
  "telephone": "023 8074 7690", 
  "longitude": "-1.5222351990725", 
  "postcode": "SO40 7AR", 
  "address": "Hampshire", 
  "latitude": "50.8906511754065"
 }, 
 {
  "hasaande": false, 
  "name": "Fountain Way", 
  "telephone": "01722 820100", 
  "longitude": "-1.80867366361028", 
  "postcode": "SP2 7EP", 
  "address": "Wiltshire", 
  "latitude": "51.0723628384065"
 }, 
 {
  "hasaande": false, 
  "name": "Fenwick Hospital", 
  "telephone": "023 8028 2782", 
  "longitude": "-1.58374947346647", 
  "postcode": "SO43 7NG", 
  "address": "Hampshire", 
  "latitude": "50.8792914860027"
 }, 
 {
  "hasaande": false, 
  "name": "New Hall Hospital", 
  "url": "http://www.new-hallhospital.co.uk", 
  "telephone": "01722 435164", 
  "longitude": "-1.8456648165782468", 
  "postcode": "SP5 4EY", 
  "address": "Wiltshire", 
  "latitude": "51.038971063513806"
 }, 
 {
  "hasaande": false, 
  "name": "New Hall NHS Treatment Centre", 
  "url": "http://www.ramsayhealth.co.uk/nhs", 
  "telephone": "01722 435164", 
  "longitude": "-1.8456648165782468", 
  "postcode": "SP5 4EY", 
  "address": "Wiltshire", 
  "latitude": "51.038971063513806"
 }, 
 {
  "hasaande": true, 
  "name": "Salisbury District Hospital", 
  "url": "http://www.salisbury.nhs.uk", 
  "telephone": "01722 336262", 
  "longitude": "-1.78985832907783", 
  "postcode": "SP2 8BJ", 
  "address": "Wiltshire", 
  "latitude": "51.0439229506621"
 }, 
 {
  "hasaande": false, 
  "name": "Lymington New Forest Hospital", 
  "url": "http://www.hchc.nhs.uk/our-hospitals/lymington", 
  "telephone": "01590 663000", 
  "longitude": "-1.545048", 
  "postcode": "SO41 8QD", 
  "address": "Hampshire", 
  "latitude": "50.769386"
 }, 
 {
  "hasaande": false, 
  "name": "Fordingbridge Hospital", 
  "url": "http://www.hchc.nhs.uk/our-hospitals/fordingbridge-hospital", 
  "telephone": "01425 652255", 
  "longitude": "-1.79320917719596", 
  "postcode": "SP6 1JD", 
  "address": "Hampshire", 
  "latitude": "50.9280248857307"
 }, 
 {
  "hasaande": false, 
  "name": "Milford On Sea War Memorial Hospital", 
  "url": "http://www.hchc.nhs.uk/our-hospitals/milford-on-sea-hospital", 
  "telephone": "01590 648100", 
  "longitude": "-1.58941970441635", 
  "postcode": "SO41 0PG", 
  "address": "Hampshire", 
  "latitude": "50.7219170973364"
 }, 
 {
  "hasaande": false, 
  "name": "Macmillan Unit", 
  "url": "http://www.rbch.nhs.uk/our_services/rehabilitation/macmillan_unit.shtml", 
  "telephone": "(01202) 705470", 
  "longitude": "-1.79020224297661", 
  "postcode": "BH23 2JX", 
  "address": "Dorset", 
  "latitude": "50.7450255136884"
 }, 
 {
  "hasaande": false, 
  "name": "Christchurch Hospital", 
  "url": "http://www.rbch.nhs.uk", 
  "telephone": "01202 486361", 
  "longitude": "-1.79028809738702", 
  "postcode": "BH23 2JX", 
  "address": "Dorset", 
  "latitude": "50.7445933253807"
 }, 
 {
  "hasaande": false, 
  "name": "St Gabriels", 
  "url": "http://www.dorsethealthcare.nhs.uk", 
  "telephone": "01202 825576", 
  "longitude": "-1.8767", 
  "postcode": "BH31 7AA", 
  "address": "Dorset", 
  "latitude": "50.8813"
 }, 
 {
  "hasaande": true, 
  "name": "Royal Bournemouth General Hospital", 
  "url": "http://www.rbch.nhs.uk/", 
  "telephone": "01202 303626", 
  "longitude": "-1.820529933876", 
  "postcode": "BH7 7DW", 
  "address": "Dorset", 
  "latitude": "50.747431268981"
 }, 
 {
  "hasaande": false, 
  "name": "Douglas House", 
  "url": "http://www.dorsethealthcare.nhs.uk", 
  "telephone": "01202 418312", 
  "longitude": "-1.81485959620443", 
  "postcode": "BH6 5AJ", 
  "address": "Dorset", 
  "latitude": "50.7280984185353"
 }, 
 {
  "hasaande": false, 
  "name": "St Leonards Community Hospital", 
  "longitude": "-1.85669984095605", 
  "postcode": "BH24 2RR", 
  "address": "Hampshire", 
  "latitude": "50.8183149721874"
 }, 
 {
  "hasaande": false, 
  "name": "Fairmile House (Acute Mental Illness)", 
  "url": "http://www.dorsethealthcare.nhs.uk", 
  "telephone": "01202 858100 / 858158 / 484250", 
  "longitude": "-1.79226404976956", 
  "postcode": "BH23 2JT", 
  "address": "Dorset", 
  "latitude": "50.743053117723"
 }, 
 {
  "hasaande": false, 
  "name": "The Oaks", 
  "url": "http://www.dorsethealthcare.nhs.uk", 
  "telephone": "01202  858050", 
  "longitude": "-1.89898", 
  "postcode": "BH10 5HT", 
  "address": "Dorset", 
  "latitude": "50.7552"
 }, 
 {
  "hasaande": false, 
  "name": "Hillcrest", 
  "url": "http://www.dorsethealthcare.nhs.uk", 
  "telephone": "01202 858070", 
  "longitude": "-1.89450237669113", 
  "postcode": "BH10 4EU", 
  "address": "Dorset", 
  "latitude": "50.7494086087457"
 }, 
 {
  "hasaande": false, 
  "name": "Addington Unit", 
  "url": "http://www.dorsethealthcare.nhs.uk", 
  "telephone": "01202 594231", 
  "longitude": "-1.90335152709112", 
  "postcode": "BH11 9DP", 
  "address": "Dorset", 
  "latitude": "50.768481912003"
 }, 
 {
  "hasaande": false, 
  "name": "Kings Park Hospital", 
  "url": "http://www.dorsethealthcare.nhs.uk", 
  "telephone": "01202 303757", 
  "longitude": "-1.83341722017935", 
  "postcode": "BH7 6JF", 
  "address": "Dorset", 
  "latitude": "50.7315340036877"
 }, 
 {
  "hasaande": false, 
  "name": "Herbert Hospital", 
  "url": "http://www.dorsethealthcare.nhs.uk", 
  "telephone": "01202 584300", 
  "longitude": "-1.90446847646383", 
  "postcode": "BH4 8EW", 
  "address": "Dorset", 
  "latitude": "50.7166715120538"
 }, 
 {
  "hasaande": false, 
  "name": "Finigan Unit", 
  "url": "http://www.dorsethealthcare.nhs.uk", 
  "telephone": "01202 584322", 
  "longitude": "-1.90429672729538", 
  "postcode": "BH4 8EW", 
  "address": "Dorset", 
  "latitude": "50.7162465814135"
 }, 
 {
  "hasaande": false, 
  "name": "Wimborne Community Hospital", 
  "longitude": "-1.99596739813261", 
  "postcode": "BH21 1ER", 
  "address": "Dorset", 
  "latitude": "50.8021615748003"
 }, 
 {
  "hasaande": false, 
  "name": "The Cedars (Poole)", 
  "url": "http://www.dorsethealthcare.nhs.uk", 
  "telephone": "01202 584070", 
  "longitude": "-1.93015703137565", 
  "postcode": "BH12 2EA", 
  "address": "Dorset", 
  "latitude": "50.733169833994"
 }, 
 {
  "hasaande": false, 
  "name": "Oakcroft", 
  "url": "http://www.dorsethealthcare.nhs.uk", 
  "telephone": "01202  848547/885176", 
  "longitude": "-1.978318", 
  "postcode": "BH21 1RR", 
  "address": "Dorset", 
  "latitude": "50.780261"
 }, 
 {
  "hasaande": false, 
  "name": "Pine Cottage", 
  "url": "http://www.dorsethealthcare.nhs.uk", 
  "telephone": "01202 706143", 
  "longitude": "-1.92826677652285", 
  "postcode": "BH13 7LJ", 
  "address": "Dorset", 
  "latitude": "50.6996643410205"
 }, 
 {
  "hasaande": false, 
  "name": "BMI - The Harbour Hospital", 
  "url": "http://www.bmihealthcare.co.uk/harbour", 
  "telephone": "01202 244200", 
  "longitude": "-1.97569198158143", 
  "postcode": "BH15 2BH", 
  "address": "Dorset", 
  "latitude": "50.7219170973364"
 }, 
 {
  "hasaande": true, 
  "name": "Poole General Hospital NHS Trust HQ", 
  "url": "http://www.poole.nhs.uk/", 
  "telephone": "01202 665511", 
  "longitude": "-1.97311422549998", 
  "postcode": "BH15 2JB", 
  "address": "Dorset", 
  "latitude": "50.7219170973364"
 }, 
 {
  "hasaande": false, 
  "name": "Delphwood", 
  "url": "http://www.dorsethealthcare.nhs.uk", 
  "telephone": "01202 659037", 
  "longitude": "-1.96658456465345", 
  "postcode": "BH17 8WG", 
  "address": "Dorset", 
  "latitude": "50.7475200614402"
 }, 
 {
  "hasaande": false, 
  "name": "Alderney Hospital", 
  "url": "http://www.dorsethealthcare.nhs.uk", 
  "telephone": "01202 735537", 
  "longitude": "-1.94012291770493", 
  "postcode": "BH12 4NB", 
  "address": "Dorset", 
  "latitude": "50.7486367973695"
 }, 
 {
  "hasaande": false, 
  "name": "Orsett Hospital", 
  "url": "http://www.basildonandthurrock.nhs.uk/", 
  "telephone": "0845 155 3111", 
  "longitude": "0.365910255949654", 
  "postcode": "RM16 3EU", 
  "address": "Essex", 
  "latitude": "51.5100082294345"
 }, 
 {
  "hasaande": false, 
  "name": "The Spencer Wing", 
  "url": "http://www.thespencerwing.com", 
  "telephone": "01843 234555", 
  "longitude": "1.38941074134233", 
  "postcode": "CT9 4BG", 
  "address": "Kent", 
  "latitude": "51.3779840878727"
 }, 
 {
  "hasaande": true, 
  "name": "Queen Elizabeth The Queen Mother Hospital", 
  "url": "http://www.ekhut.nhs.uk/home-page/patients-and-public/our-hospitals/queen-elizabeth-the-queen-mother-hospital/", 
  "telephone": "01843 225544", 
  "longitude": "1.38941074134233", 
  "postcode": "CT9 4AN", 
  "address": "Kent", 
  "latitude": "51.3779840878727"
 }, 
 {
  "hasaande": false, 
  "name": "Birmingham Dental Hospital", 
  "telephone": "0121 236 8611", 
  "longitude": "-1.89527568217122", 
  "postcode": "B4 6NN", 
  "address": "West Midlands", 
  "latitude": "52.4856563561412"
 }, 
 {
  "hasaande": false, 
  "name": "Grove Avenue", 
  "url": "http://www.bsmht.nhs.uk", 
  "telephone": "0121 678 3796", 
  "longitude": "-1.88229657147149", 
  "postcode": "B13 9RY", 
  "address": "West Midlands", 
  "latitude": "52.4409353894681"
 }, 
 {
  "hasaande": false, 
  "name": "Moseley Hall Hospital", 
  "url": "http://www.southbirminghampct.nhs.uk", 
  "telephone": "0121 442 4321", 
  "longitude": "-1.89286996147949", 
  "postcode": "B13 8JL", 
  "address": "West Midlands", 
  "latitude": "52.4458773344151"
 }, 
 {
  "hasaande": false, 
  "name": "Swanage Community Hospital", 
  "longitude": "-1.96125808431789", 
  "postcode": "BH19 2ES", 
  "address": "Dorset", 
  "latitude": "50.6054623719876"
 }, 
 {
  "hasaande": false, 
  "name": "Wareham Community Hospital", 
  "longitude": "-2.1167633490291", 
  "postcode": "BH20 4QQ", 
  "address": "Dorset", 
  "latitude": "50.6869465287859"
 }, 
 {
  "hasaande": false, 
  "name": "Blandford Community Hospital", 
  "url": "http://www.dorset-pct.nhs.uk", 
  "telephone": "01258 456541", 
  "longitude": "-2.1682260496608", 
  "postcode": "DT11 7DD", 
  "address": "Dorset", 
  "latitude": "50.8632849376827"
 }, 
 {
  "hasaande": false, 
  "name": "Westminster Memorial Hospital", 
  "longitude": "-2.20018642577799", 
  "postcode": "SP7 8BD", 
  "address": "Dorset", 
  "latitude": "51.0046596082181"
 }, 
 {
  "hasaande": false, 
  "name": "Ridley Day Hospital", 
  "telephone": "01963 32006", 
  "longitude": "-2.4182376537097", 
  "postcode": "BA9 9DQ", 
  "address": "Somerset", 
  "latitude": "51.0587000649314"
 }, 
 {
  "hasaande": false, 
  "name": "Shepton Mallet NHS Treatment Centre", 
  "url": "http://www.uk-sh.co.uk/treatment-centres/shepton-mallet-nhs-treatment-centre", 
  "telephone": "01749 333600", 
  "longitude": "-2.56248847421603", 
  "postcode": "BA4 4LP", 
  "address": "Somerset", 
  "latitude": "51.1905090555342"
 }, 
 {
  "hasaande": false, 
  "name": "West Mendip Community Hospital", 
  "url": "http://www.somerset.nhs.uk/pct/hospitals/westmendip.html", 
  "telephone": "01458 836450", 
  "longitude": "-2.69926429300601", 
  "postcode": "BA6 8JD", 
  "address": "Somerset", 
  "latitude": "51.160251317511"
 }, 
 {
  "hasaande": false, 
  "name": "Burnham-on-Sea War Memorial Hospital", 
  "url": "http://www.somerset.nhs.uk/pct/hospitals/burnham.html", 
  "telephone": "01278 773118", 
  "longitude": "-2.99386529294746", 
  "postcode": "TA8 1ED", 
  "address": "Somerset", 
  "latitude": "51.239112681668"
 }, 
 {
  "hasaande": false, 
  "name": "Little Court Day Hospital", 
  "telephone": "01278 786876", 
  "longitude": "-3.01010342736894", 
  "postcode": "TA8 2NF", 
  "address": "Somerset", 
  "latitude": "51.2654191552564"
 }, 
 {
  "hasaande": false, 
  "name": "Yeatman Hospital", 
  "longitude": "-2.51987492398431", 
  "postcode": "DT9 3JU", 
  "address": "Dorset", 
  "latitude": "50.9495877929403"
 }, 
 {
  "hasaande": false, 
  "name": "Albany Close", 
  "url": "http://www.dorsethealthcare.nhs.uk", 
  "telephone": "01935 817272", 
  "longitude": "-2.50956475343219", 
  "postcode": "DT9 4EA", 
  "address": "Dorset", 
  "latitude": "50.9566331330693"
 }, 
 {
  "hasaande": false, 
  "name": "Weymouth Community Hospital", 
  "url": "http://www.dorset-pct.nhs.uk", 
  "telephone": "01305 760022", 
  "longitude": "-2.45091584001999", 
  "postcode": "DT4 7TB", 
  "address": "Dorset", 
  "latitude": "50.6205365994859"
 }, 
 {
  "hasaande": true, 
  "name": "Yeovil District Hospital", 
  "url": "http://www.yeovilhospital.nhs.uk/", 
  "telephone": "01935 475122", 
  "longitude": "-2.63396939208797", 
  "postcode": "BA21 4AT", 
  "address": "Somerset", 
  "latitude": "50.9452096416825"
 }, 
 {
  "hasaande": false, 
  "name": "BMI - The Winterbourne Hospital", 
  "url": "http://www.bmihealthcare.co.uk/winterbourne", 
  "telephone": "01305 263252", 
  "longitude": "-2.44186434526584", 
  "postcode": "DT1 2DR", 
  "address": "Dorset", 
  "latitude": "50.7009518316789"
 }, 
 {
  "hasaande": true, 
  "name": "Dorset County Hospital", 
  "url": "http://www.dchft.nhs.uk", 
  "telephone": "01305 251150", 
  "longitude": "-2.4471908256014", 
  "postcode": "DT1 2JY", 
  "address": "Dorset", 
  "latitude": "50.713410096725"
 }, 
 {
  "hasaande": false, 
  "name": "Bridgwater Hospital", 
  "url": "http://www.somerset.nhs.uk/pct/hospitals/bridgwater.html", 
  "telephone": "01278 451501", 
  "longitude": "-2.9996216483139", 
  "postcode": "TA6 5AH", 
  "address": "Somerset", 
  "latitude": "51.1281596736957"
 }, 
 {
  "hasaande": false, 
  "name": "Westhaven Hospital", 
  "longitude": "-2.47983848950382", 
  "postcode": "DT4 0QE", 
  "address": "Dorset", 
  "latitude": "50.6149255990827"
 }, 
 {
  "hasaande": false, 
  "name": "Portland Hospital", 
  "url": "http://www.dorset-pct.nhs.uk", 
  "telephone": "01305 820341", 
  "longitude": "-2.44564442808462", 
  "postcode": "DT5 1AX", 
  "address": "Dorset", 
  "latitude": "50.5660726710442"
 }, 
 {
  "hasaande": false, 
  "name": "Poltair Hospital", 
  "telephone": "01736 575570", 
  "longitude": "-5.56056372501315", 
  "postcode": "TR20 8SR", 
  "address": "Cornwall", 
  "latitude": "50.1298865453633"
 }, 
 {
  "hasaande": false, 
  "name": "Minehead Hospital", 
  "url": "http://www.somerset.nhs.uk/pct/hospitals/minehead.html", 
  "telephone": "01643 707251", 
  "longitude": "-3.47644761299966", 
  "postcode": "TA24 5LY", 
  "address": "Somerset", 
  "latitude": "51.2065941510296"
 }, 
 {
  "hasaande": false, 
  "name": "Williton Hospital", 
  "url": "http://www.somerset.nhs.uk/pct/hospitals/williton.html", 
  "telephone": "01984 635600", 
  "longitude": "-3.3236052682911", 
  "postcode": "TA4 4RA", 
  "address": "Somerset", 
  "latitude": "51.1630004686521"
 }, 
 {
  "hasaande": false, 
  "name": "Nuffield Health, Taunton Hospital", 
  "url": "http://www.nuffieldhealth.com/tauntonhospital", 
  "telephone": "0800 150 50 20", 
  "longitude": "-3.127376708201", 
  "postcode": "TA2 6AN", 
  "address": "Somerset", 
  "latitude": "51.029743477945"
 }, 
 {
  "hasaande": true, 
  "name": "West Cornwall Hospital (Penzance)", 
  "url": "http://www.cornwall.nhs.uk/rcht", 
  "telephone": "01736 874000", 
  "longitude": "-5.54303703271609", 
  "postcode": "TR18 2PF", 
  "address": "Cornwall", 
  "latitude": "50.1219806013992"
 }, 
 {
  "hasaande": false, 
  "name": "Bridport Community Hospital", 
  "url": "http://www.dorset-pct.nhs.uk", 
  "telephone": "01308 422371", 
  "longitude": "-2.76997190539786", 
  "postcode": "DT6 5DR", 
  "address": "Dorset", 
  "latitude": "50.7415026647814"
 }, 
 {
  "hasaande": false, 
  "name": "Ilfracombe", 
  "url": "http://www.northdevonhealth.nhs.uk", 
  "telephone": "01271 863 448", 
  "longitude": "-4.12450133806195", 
  "postcode": "EX34 8JF", 
  "address": "Devon", 
  "latitude": "51.2045272682056"
 }, 
 {
  "hasaande": false, 
  "name": "Edward Hain Community Hospital", 
  "telephone": "01736 576100", 
  "longitude": "-5.47911670736851", 
  "postcode": "TR26 2BS", 
  "address": "Cornwall", 
  "latitude": "50.2076380037803"
 }, 
 {
  "hasaande": true, 
  "name": "Musgrove Park Hospital", 
  "url": "http://www.somerset.nhs.uk/tst", 
  "telephone": "01823 333444", 
  "longitude": "-3.11981632912003", 
  "postcode": "TA1 5DA", 
  "address": "Somerset", 
  "latitude": "51.0118757030763"
 }, 
 {
  "hasaande": false, 
  "name": "Helston Community Hospital", 
  "telephone": "01326 435800", 
  "longitude": "-5.26501717075847", 
  "postcode": "TR13 8DR", 
  "address": "Cornwall", 
  "latitude": "50.0919755803752"
 }, 
 {
  "hasaande": false, 
  "name": "Axminster Hospital", 
  "url": "http://www.devonpct.nhs.uk", 
  "telephone": "01297 630400", 
  "longitude": "-2.99627101363918", 
  "postcode": "EX13 5DU", 
  "address": "Devon", 
  "latitude": "50.7838566678247"
 }, 
 {
  "hasaande": false, 
  "name": "Lyme NHS Clinical Services", 
  "longitude": "-2.94678415866833", 
  "postcode": "DT7 3LS", 
  "address": "Dorset", 
  "latitude": "50.7298196262061"
 }, 
 {
  "hasaande": false, 
  "name": "Wellington and District Cottage Hospital", 
  "url": "http://www.somerset.nhs.uk/pct/hospitals/wellington.html", 
  "telephone": "01823 662663", 
  "longitude": "-3.22746736751542", 
  "postcode": "TA21 8QQ", 
  "address": "Somerset", 
  "latitude": "50.9765636250673"
 }, 
 {
  "hasaande": false, 
  "name": "Camborne Redruth Community Hospital", 
  "telephone": "01209 881688", 
  "longitude": "-5.24525700660281", 
  "postcode": "TR15 3ER", 
  "address": "Cornwall", 
  "latitude": "50.2294707034621"
 }, 
 {
  "hasaande": true, 
  "name": "North Devon District Hospital", 
  "url": "http://www.northdevonhealth.nhs.uk", 
  "telephone": "01271 322577", 
  "longitude": "-4.05147355526021", 
  "postcode": "EX31 4JB", 
  "address": "Devon", 
  "latitude": "51.0911844446239"
 }, 
 {
  "hasaande": false, 
  "name": "Seaton Hospital", 
  "telephone": "01297 23901", 
  "longitude": "-3.07153244121674", 
  "postcode": "EX12 2UU", 
  "address": "Devon", 
  "latitude": "50.7117742664189"
 }, 
 {
  "hasaande": false, 
  "name": "Bideford Hospital", 
  "url": "http://www.northdevonhealth.nhs.uk", 
  "telephone": "01237 420 200", 
  "longitude": "-4.21256406589588", 
  "postcode": "EX39 3AG", 
  "address": "Devon", 
  "latitude": "51.0178915031721"
 }, 
 {
  "hasaande": false, 
  "name": "South Molton Hospital", 
  "url": "http://www.northdevonhealth.nhs.uk", 
  "telephone": "01769 572 164", 
  "longitude": "-3.83952211314414", 
  "postcode": "EX36 4DP", 
  "address": "Devon", 
  "latitude": "51.0169471185351"
 }, 
 {
  "hasaande": false, 
  "name": "Longreach House", 
  "url": "http://www.cornwallpartnershiptrust.nhs.uk", 
  "telephone": "01209 881879", 
  "longitude": "-5.24525700660281", 
  "postcode": "TR15 3ER", 
  "address": "Cornwall", 
  "latitude": "50.2294707034621"
 }, 
 {
  "hasaande": false, 
  "name": "Duchy Hospital", 
  "url": "http://www.duchyhospital.co.uk", 
  "telephone": "0800 917 0022", 
  "longitude": "-5.09361784240524", 
  "postcode": "TR1 3UP", 
  "address": "Cornwall", 
  "latitude": "50.2679246684894"
 }, 
 {
  "hasaande": false, 
  "name": "Falmouth Hospital", 
  "telephone": "01326 434700", 
  "longitude": "-5.08622939376426", 
  "postcode": "TR11 2JA", 
  "address": "Cornwall", 
  "latitude": "50.1556872961226"
 }, 
 {
  "hasaande": false, 
  "name": "Whipton Community Hospital", 
  "url": "http://www.devonpct.nhs.uk", 
  "telephone": "01392 208333", 
  "longitude": "-3.48417981445232", 
  "postcode": "EX1 3RB", 
  "address": "Devon", 
  "latitude": "50.7309359795056"
 }, 
 {
  "hasaande": false, 
  "name": "Torrington Hospital", 
  "url": "http://www.northdevonhealth.nhs.uk", 
  "telephone": "01805 622208", 
  "longitude": "-4.13704429961625", 
  "postcode": "EX38 7BJ", 
  "address": "Devon", 
  "latitude": "50.9547445857638"
 }, 
 {
  "hasaande": false, 
  "name": "Newquay Hospital", 
  "url": "http://www.cornwallandislesofscilly.nhs.uk", 
  "telephone": "01637 893600", 
  "longitude": "-5.07428712639364", 
  "postcode": "TR7 1RQ", 
  "address": "Cornwall", 
  "latitude": "50.4110171316011"
 }, 
 {
  "hasaande": true, 
  "name": "Royal Cornwall Hospital (Treliske)", 
  "url": "http://www.cornwall.nhs.uk/rcht", 
  "telephone": "01872 250000", 
  "longitude": "-5.09155597904953", 
  "postcode": "TR1 3LJ", 
  "address": "Cornwall", 
  "latitude": "50.2667225551955"
 }, 
 {
  "hasaande": false, 
  "name": "Nuffield Health, Exeter Hospital", 
  "url": "http://www.nuffieldhealth.com/exeterhospital", 
  "telephone": "0800 015 50 20", 
  "longitude": "-3.51132874876067", 
  "postcode": "EX2 4UG", 
  "address": "Devon", 
  "latitude": "50.7162480403252"
 }, 
 {
  "hasaande": true, 
  "name": "Royal Devon and Exeter Hospital (Wonford)", 
  "url": "http://www.rdehospital.nhs.uk/", 
  "telephone": "01392 411 611", 
  "longitude": "-3.50668976965377", 
  "postcode": "EX2 5DW", 
  "address": "Devon", 
  "latitude": "50.7166715120538"
 }, 
 {
  "hasaande": false, 
  "name": "Stratton Hospital", 
  "telephone": "01288 287700", 
  "longitude": "-4.51627134337416", 
  "postcode": "EX23 9BP", 
  "address": "Cornwall", 
  "latitude": "50.830175595681"
 }, 
 {
  "hasaande": false, 
  "name": "Holsworthy Hospital", 
  "url": "http://www.northdevonhealth.nhs.uk/", 
  "telephone": "01409 253 424", 
  "longitude": "-4.35002688658406", 
  "postcode": "EX22 6JQ", 
  "address": "Devon", 
  "latitude": "50.8184017277055"
 }, 
 {
  "hasaande": false, 
  "name": "Exmouth Hospital", 
  "url": "http://www.devonpct.nhs.uk", 
  "telephone": "01395 279684", 
  "longitude": "-3.401616060453", 
  "postcode": "EX8 2JN", 
  "address": "Devon", 
  "latitude": "50.620526354202"
 }, 
 {
  "hasaande": false, 
  "name": "Okehampton Community Hospital", 
  "url": "http://www.devonpct.nhs.uk", 
  "telephone": "01837 658000", 
  "longitude": "-3.997261916931", 
  "postcode": "EX20 1PN", 
  "address": "Devon", 
  "latitude": "50.7388423060996"
 }, 
 {
  "hasaande": false, 
  "name": "St Austell Community Hospital", 
  "url": "www.cornwallandislesofscilly.nhs.uk/communityhealthservices", 
  "telephone": "01726 291100", 
  "longitude": "-4.77315646560564", 
  "postcode": "PL26 6AD", 
  "address": "Cornwall", 
  "latitude": "50.3270775217962"
 }, 
 {
  "hasaande": false, 
  "name": "Bodmin Hospital", 
  "url": "www.cornwallandislesofscilly.nhs.uk/communityhealthservices", 
  "telephone": "01208 251300", 
  "longitude": "-4.74119630293185", 
  "postcode": "PL31 2QT", 
  "address": "Cornwall", 
  "latitude": "50.4674413243346"
 }, 
 {
  "hasaande": false, 
  "name": "Bodmin NHS Treatment Centre", 
  "url": "http://www.ramsayhealth.co.uk", 
  "telephone": "01208 262520", 
  "longitude": "-4.74265661637223", 
  "postcode": "PL31 2QT", 
  "address": "Cornwall", 
  "latitude": "50.4691582339656"
 }, 
 {
  "hasaande": false, 
  "name": "Bovey Tracey Hospital", 
  "url": "http://www.devonpct.nhs.uk", 
  "telephone": "01626 832279", 
  "longitude": "-3.67637066510051", 
  "postcode": "TQ13 9HJ", 
  "address": "Devon", 
  "latitude": "50.5979764846573"
 }, 
 {
  "hasaande": true, 
  "name": "Torbay Hospital", 
  "url": "http://www.sdhct.nhs.uk", 
  "telephone": "01803 614567", 
  "longitude": "-3.55385670818435", 
  "postcode": "TQ2 7AA", 
  "address": "Devon", 
  "latitude": "50.4823106461577"
 }, 
 {
  "hasaande": false, 
  "name": "Mount Stuart Hospital", 
  "url": "http://www.mountstuarthospital.co.uk", 
  "telephone": "01803 313881", 
  "longitude": "-3.5418283181691388", 
  "postcode": "TQ1 4UP", 
  "address": "Devon", 
  "latitude": "50.475002343745849"
 }, 
 {
  "hasaande": false, 
  "name": "Moretonhampstead Hospital", 
  "telephone": "01647 440217", 
  "longitude": "-3.76597975880331", 
  "postcode": "TQ13 8LN", 
  "address": "Devon", 
  "latitude": "50.6614289420467"
 }, 
 {
  "hasaande": false, 
  "name": "Fowey Hospital", 
  "telephone": "01726 832241", 
  "longitude": "-4.6393014064595", 
  "postcode": "PL23 1EE", 
  "address": "Cornwall", 
  "latitude": "50.338436126386"
 }, 
 {
  "hasaande": false, 
  "name": "Dartmouth Hospital", 
  "url": "http://www.devonpct.nhs.uk", 
  "telephone": "01803 832255", 
  "longitude": "-3.57774081249483", 
  "postcode": "TQ6 9BD", 
  "address": "Devon", 
  "latitude": "50.3503104102581"
 }, 
 {
  "hasaande": false, 
  "name": "Paignton Hospital", 
  "telephone": "01803 557425", 
  "longitude": "-3.56889187553825", 
  "postcode": "TQ3 3AG", 
  "address": "Devon", 
  "latitude": "50.437169925933"
 }, 
 {
  "hasaande": false, 
  "name": "Liskeard Community Hospital", 
  "telephone": "01579 335600", 
  "longitude": "-4.4510626735944", 
  "postcode": "PL14 3XD", 
  "address": "Cornwall", 
  "latitude": "50.4615093050405"
 }, 
 {
  "hasaande": false, 
  "name": "Totnes Hospital", 
  "url": "http://www.devonpct.nhs.uk", 
  "telephone": "01803 862622", 
  "longitude": "-3.68418909726606", 
  "postcode": "TQ9 5GH", 
  "address": "Devon", 
  "latitude": "50.4327781142968"
 }, 
 {
  "hasaande": false, 
  "name": "Totnes Community Hospital", 
  "longitude": "-3.68418909726606", 
  "postcode": "TQ9 5GH", 
  "address": "Devon", 
  "latitude": "50.4327781142968"
 }, 
 {
  "hasaande": false, 
  "name": "Ashburton and Buckfastleigh Hospital", 
  "url": "http://www.devonpct.nhs.uk", 
  "telephone": "01364 652203", 
  "longitude": "-3.74965603357382", 
  "postcode": "TQ13 7AP", 
  "address": "Devon", 
  "latitude": "50.5184321015834"
 }, 
 {
  "hasaande": false, 
  "name": "Launceston General Hospital", 
  "telephone": "01566 765650", 
  "longitude": "-4.35913387689473", 
  "postcode": "PL15 9JD", 
  "address": "Cornwall", 
  "latitude": "50.6281795811671"
 }, 
 {
  "hasaande": false, 
  "name": "Nuffield Health, Plymouth Hospital", 
  "url": "http://www.nuffieldhealth.com/plymouthhospital", 
  "telephone": "0800 015 50 20", 
  "longitude": "-4.11453541120647", 
  "postcode": "PL6 8BG", 
  "address": "Devon", 
  "latitude": "50.4186703585662"
 }, 
 {
  "hasaande": false, 
  "name": "St Barnabas Hospital", 
  "telephone": "01752 857400", 
  "longitude": "-4.21436801743632", 
  "postcode": "PL12 4BU", 
  "address": "Cornwall", 
  "latitude": "50.4073185841656"
 }, 
 {
  "hasaande": false, 
  "name": "Tavistock Hospital", 
  "url": "http://www.devonpct.nhs.uk", 
  "telephone": "01822 612233", 
  "longitude": "-4.15362629137375", 
  "postcode": "PL19 8LD", 
  "address": "Devon", 
  "latitude": "50.5470813300569"
 }, 
 {
  "hasaande": false, 
  "name": "South Hams (Kingsbridge) Hospital", 
  "url": "http://www.devonpct.nhs.uk", 
  "telephone": "01548 852349", 
  "longitude": "-3.77912488474783", 
  "postcode": "TQ7 1AT", 
  "address": "Devon", 
  "latitude": "50.2889958020789"
 }, 
 {
  "hasaande": false, 
  "name": "Scott Hospital", 
  "url": "http://www.plymouthhospitals.org.uk", 
  "telephone": "0845 155 8174", 
  "longitude": "-4.16196040282163", 
  "postcode": "PL2 2PQ", 
  "address": "Devon", 
  "latitude": "50.3905504697532"
 }, 
 {
  "hasaande": false, 
  "name": "Peninsula NHS Treatment Centre", 
  "url": "http://www.peninsulatreatmentcentre.nhs.uk", 
  "telephone": "01752 506070", 
  "longitude": "-4.117671", 
  "postcode": "PL6 5XP", 
  "address": "Devon", 
  "latitude": "50.412384"
 }, 
 {
  "hasaande": true, 
  "name": "Derriford Hospital", 
  "url": "http://www.plymouthhospitals.nhs.uk", 
  "telephone": "0845 155 8155", 
  "longitude": "-4.11376189228297", 
  "postcode": "PL6 8DH", 
  "address": "Devon", 
  "latitude": "50.4166930188015"
 }, 
 {
  "hasaande": false, 
  "name": "Centres Of Clinical Excellence - Plymouth", 
  "longitude": "-4.10998180946419", 
  "postcode": "PL6 8BU", 
  "address": "Devon", 
  "latitude": "50.4168637735307"
 }, 
 {
  "hasaande": true, 
  "name": "Royal Eye Infirmary", 
  "url": "http://www.plymouthhospitals.nhs.uk/", 
  "telephone": "0845 155 8094", 
  "longitude": "-4.13902078560732", 
  "postcode": "PL4 6PL", 
  "address": "Devon", 
  "latitude": "50.3805818086595"
 }, 
 {
  "hasaande": false, 
  "name": "Plympton Hospital", 
  "telephone": "01752 314 500", 
  "longitude": "-4.06212736970497", 
  "postcode": "PL7 1QR", 
  "address": "Devon", 
  "latitude": "50.3865957902238"
 }, 
 {
  "hasaande": false, 
  "name": "Woking Community Hospital", 
  "url": "http://www.sabp.nhs.uk", 
  "telephone": "01483 848418", 
  "longitude": "-0.556554651298012", 
  "postcode": "GU22 7HS", 
  "address": "Surrey", 
  "latitude": "51.314960116858"
 }, 
 {
  "hasaande": false, 
  "name": "Henderson Hospital", 
  "url": "http://www.swlstg-tr.nhs.uk", 
  "telephone": "020 8661 1611", 
  "longitude": "-0.198806342851988", 
  "postcode": "SM2 5LT", 
  "address": "Surrey", 
  "latitude": "51.3497822367898"
 }, 
 {
  "hasaande": false, 
  "name": "Petersfield Community Hospital", 
  "url": "http://www.childbirthchoices.co.uk", 
  "telephone": "01730 263221", 
  "longitude": "-0.94205341647161", 
  "postcode": "GU32 3LB", 
  "address": "Hampshire", 
  "latitude": "51.0039743210512"
 }, 
 {
  "hasaande": false, 
  "name": "Petersfield Hospital", 
  "url": "http://www.hchc.nhs.uk/our-hospitals/2009-03-23-12-39-53", 
  "telephone": "01730 263221", 
  "longitude": "-0.942053414387186", 
  "postcode": "GU32 3LB", 
  "address": "Hampshire", 
  "latitude": "51.0039731742066"
 }, 
 {
  "hasaande": false, 
  "name": "Spire Portsmouth Hospital", 
  "url": "http://www.spirehealthcare.com/portsmouth", 
  "telephone": "023 92456082", 
  "longitude": "-0.955284237861441", 
  "postcode": "PO9 5NP", 
  "address": "Hampshire", 
  "latitude": "50.8687934852482"
 }, 
 {
  "hasaande": false, 
  "name": "St Ebbas", 
  "url": "http://www.sabp.nhs.uk", 
  "telephone": "01883 383838", 
  "longitude": "-0.274497111851894", 
  "postcode": "KT19 8QJ", 
  "address": "Surrey", 
  "latitude": "51.3492699726021"
 }, 
 {
  "hasaande": false, 
  "name": "Hillcroft", 
  "url": "http://www.sabp.nhs.uk", 
  "telephone": "01372 203020", 
  "longitude": "-0.274497111851894", 
  "postcode": "KT19 8QJ", 
  "address": "Surrey", 
  "latitude": "51.3492699726021"
 }, 
 {
  "hasaande": false, 
  "name": "Sutton Hospital", 
  "url": "http://www.epsom-sthelier.nhs.uk", 
  "telephone": "020 8296 2000", 
  "longitude": "-0.193565546705965", 
  "postcode": "SM2 5NF", 
  "address": "Surrey", 
  "latitude": "51.3468623309195"
 }, 
 {
  "hasaande": false, 
  "name": "Cobham Day Surgery Unit", 
  "telephone": "01932 588 400", 
  "longitude": "-0.40851", 
  "postcode": "KT11 1HS", 
  "address": "Surrey", 
  "latitude": "51.33538"
 }, 
 {
  "hasaande": false, 
  "name": "The Royal Marsden Hospital (Surrey)", 
  "url": "http://www.royalmarsden.nhs.uk", 
  "telephone": "020 8642 6011", 
  "longitude": "-0.190386707297132", 
  "postcode": "SM2 5PT", 
  "address": "Surrey", 
  "latitude": "51.3435940854017"
 }, 
 {
  "hasaande": false, 
  "name": "Oak Glade Campus", 
  "url": "http://www.sabp.nhs.uk", 
  "telephone": "01372 203607", 
  "longitude": "-0.287040620860489", 
  "postcode": "KT19 8NW", 
  "address": "Surrey", 
  "latitude": "51.3362038207198"
 }, 
 {
  "hasaande": false, 
  "name": "Loughta House", 
  "url": "http://www.sabp.nhs.uk", 
  "telephone": "01372 204001", 
  "longitude": "-0.295460243075132", 
  "postcode": "KT19 8NX", 
  "address": "Surrey", 
  "latitude": "51.3382699529437"
 }, 
 {
  "hasaande": false, 
  "name": "Chase Community Hospital", 
  "telephone": "01420 488801", 
  "longitude": "-0.862066829925312", 
  "postcode": "GU35 0YZ", 
  "address": "Hampshire", 
  "latitude": "51.1061425589062"
 }, 
 {
  "hasaande": false, 
  "name": "Crisis Assessment Treatment Team (Mid)", 
  "url": "http://www.sabp.nhs.uk", 
  "telephone": "01883 383838", 
  "longitude": "-0.301646084798532", 
  "postcode": "KT19 8PB", 
  "address": "Surrey", 
  "latitude": "51.3417023419879"
 }, 
 {
  "hasaande": false, 
  "name": "West Park", 
  "url": "http://www.sabp.nhs.uk", 
  "telephone": "01883 383838", 
  "longitude": "-0.301646073266063", 
  "postcode": "KT19 8PB", 
  "address": "Surrey", 
  "latitude": "51.3417021230017"
 }, 
 {
  "hasaande": false, 
  "name": "South West London Elective Orthopaedic Centre", 
  "url": "http://www.swleoc.nhs.uk", 
  "telephone": "01372 735 800", 
  "longitude": "-0.273380189159611", 
  "postcode": "KT18 7EG", 
  "address": "Surrey", 
  "latitude": "51.3250262161431"
 }, 
 {
  "hasaande": false, 
  "name": "Dept Of Psychiatry", 
  "url": "http://www.sabp.nhs.uk", 
  "telephone": "01883 383838", 
  "longitude": "-0.273380194303808", 
  "postcode": "KT18 7EG", 
  "address": "Surrey", 
  "latitude": "51.3250255620351"
 }, 
 {
  "hasaande": false, 
  "name": "Epsom General Hospital", 
  "url": "http://www.sabp.nhs.uk", 
  "telephone": "01883 383838", 
  "longitude": "-0.273380194303808", 
  "postcode": "KT18 7EG", 
  "address": "Surrey", 
  "latitude": "51.3250255620351"
 }, 
 {
  "hasaande": false, 
  "name": "Epsom/Ewell/Banstead Camhs", 
  "url": "http://www.sabp.nhs.uk", 
  "telephone": "01372 204120", 
  "longitude": "-0.262125304620938", 
  "postcode": "KT17 4PP", 
  "address": "Surrey", 
  "latitude": "51.3322508753404"
 }, 
 {
  "hasaande": true, 
  "name": "Epsom Hospital", 
  "url": "http://www.epsom-sthelier.nhs.uk", 
  "telephone": "01372 735 735", 
  "longitude": "-0.273380189159611", 
  "postcode": "KT18 7EG", 
  "address": "Surrey", 
  "latitude": "51.3250262161431"
 }, 
 {
  "hasaande": false, 
  "name": "Ashtead Hospital", 
  "url": "http://www.ashteadhospital.co.uk", 
  "telephone": "01372 221400", 
  "longitude": "-0.30327846179726964", 
  "postcode": "KT21 2SB", 
  "address": "Surrey", 
  "latitude": "51.30428976182295"
 }, 
 {
  "hasaande": true, 
  "name": "Royal Surrey County Hospital", 
  "url": "http://www.royalsurrey.nhs.uk", 
  "telephone": "01483 571122", 
  "longitude": "-0.607416086686933", 
  "postcode": "GU2 7XX", 
  "address": "Surrey", 
  "latitude": "51.2410114742573"
 }, 
 {
  "hasaande": false, 
  "name": "Tylney House", 
  "url": "http://www.sabp.nhs.uk", 
  "telephone": "01372 379739", 
  "longitude": "-0.328365506494887", 
  "postcode": "KT22 8AB", 
  "address": "Surrey", 
  "latitude": "51.2954241762802"
 }, 
 {
  "hasaande": false, 
  "name": "Albert Ward", 
  "url": "http://www.sabp.nhs.uk", 
  "telephone": "01483 443528", 
  "longitude": "-0.584476896359445", 
  "postcode": "GU2 7LX", 
  "address": "Surrey", 
  "latitude": "51.2351545870441"
 }, 
 {
  "hasaande": false, 
  "name": "Victoria Ward", 
  "url": "http://www.sabp.nhs.uk", 
  "telephone": "01483 443508", 
  "longitude": "-0.584476896359445", 
  "postcode": "GU2 7LX", 
  "address": "Surrey", 
  "latitude": "51.2351545870441"
 }, 
 {
  "hasaande": false, 
  "name": "Acorn Drug and Alcohol Team", 
  "url": "http://www.sabp.nhs.uk", 
  "telephone": "01483 450256", 
  "longitude": "-0.582243116034402", 
  "postcode": "GU2 4JN", 
  "address": "Surrey", 
  "latitude": "51.235584935698"
 }, 
 {
  "hasaande": false, 
  "name": "Child and Adolescent (Camhs)", 
  "url": "http://www.sabp.nhs.uk", 
  "telephone": "01883 383838", 
  "longitude": "-0.320289544917686", 
  "postcode": "KT22 8SD", 
  "address": "Surrey", 
  "latitude": "51.2949996910194"
 }, 
 {
  "hasaande": false, 
  "name": "Guildford Cmht", 
  "url": "http://www.sabp.nhs.uk", 
  "telephone": "01483 443551", 
  "longitude": "-0.584476896359445", 
  "postcode": "GU2 7LX", 
  "address": "Surrey", 
  "latitude": "51.2351545870441"
 }, 
 {
  "hasaande": false, 
  "name": "Guildford Elderley Cmht", 
  "url": "http://www.sabp.nhs.uk", 
  "telephone": "01483 443655", 
  "longitude": "-0.584476896359445", 
  "postcode": "GU2 7LX", 
  "address": "Surrey", 
  "latitude": "51.2351545870441"
 }, 
 {
  "hasaande": false, 
  "name": "Farnham Road Hospital", 
  "url": "http://www.sabp.nhs.uk", 
  "telephone": "01883 383838", 
  "longitude": "-0.584476896359445", 
  "postcode": "GU2 7LX", 
  "address": "Surrey", 
  "latitude": "51.2351545870441"
 }, 
 {
  "hasaande": false, 
  "name": "Noel Lavin Ward", 
  "url": "http://www.sabp.nhs.uk", 
  "telephone": "01483 443674", 
  "longitude": "-0.584476896359445", 
  "postcode": "GU2 7LX", 
  "address": "Surrey", 
  "latitude": "51.2351545870441"
 }, 
 {
  "hasaande": false, 
  "name": "BMI Mount Alvernia Hospital", 
  "url": "http://www.bmihealthcare.co.uk/mountalvernia", 
  "telephone": "01483 570122", 
  "longitude": "-0.56063", 
  "postcode": "GU1 3LX", 
  "address": "Surrey", 
  "latitude": "51.23288"
 }, 
 {
  "hasaande": false, 
  "name": "Milford Specialist Rehabilitation Hospital", 
  "longitude": "-0.62631730119362", 
  "postcode": "GU7 1UF", 
  "address": "Surrey", 
  "latitude": "51.1677269595576"
 }, 
 {
  "hasaande": false, 
  "name": "Milford Hospital", 
  "url": "http://www.sabp.nhs.uk", 
  "telephone": "01483 782000", 
  "longitude": "-0.626317301193621", 
  "postcode": "GU7 1UF", 
  "address": "Surrey", 
  "latitude": "51.1677303746523"
 }, 
 {
  "hasaande": false, 
  "name": "Godalming Cmht", 
  "url": "http://www.sabp.nhs.uk", 
  "telephone": "01483 415155", 
  "longitude": "-0.611797653039496", 
  "postcode": "GU7 3PP", 
  "address": "Surrey", 
  "latitude": "51.1995419807116"
 }, 
 {
  "hasaande": false, 
  "name": "Redhill/Reigate Community Mental Health Team", 
  "url": "http://www.sabp.nhs.uk", 
  "telephone": "01737 272301", 
  "longitude": "-0.182224818001952", 
  "postcode": "RH2 7DG", 
  "address": "Surrey", 
  "latitude": "51.2363601154326"
 }, 
 {
  "hasaande": true, 
  "name": "St Richard's Hospital", 
  "url": "http://www.westernsussexhospitals.nhs.uk/", 
  "telephone": "(01243) 788122", 
  "longitude": "-0.767990418979348", 
  "postcode": "PO19 6SE", 
  "address": "West Sussex", 
  "latitude": "50.8435012947518"
 }, 
 {
  "hasaande": false, 
  "name": "Haslemere Hospital", 
  "url": "http://www.sabp.nhs.uk", 
  "telephone": "01483 783090", 
  "longitude": "-0.708537555073327", 
  "postcode": "GU27 2BJ", 
  "address": "Surrey", 
  "latitude": "51.0918681605382"
 }, 
 {
  "hasaande": false, 
  "name": "Haslemere Cmht", 
  "url": "http://www.sabp.nhs.uk", 
  "telephone": "01483 783090", 
  "longitude": "-0.708537555073327", 
  "postcode": "GU27 2BJ", 
  "address": "Surrey", 
  "latitude": "51.0918681605382"
 }, 
 {
  "hasaande": false, 
  "name": "Dene Street Clinic", 
  "url": "http://www.sabp.nhs.uk", 
  "telephone": "01306 502708", 
  "longitude": "-0.328126449873938", 
  "postcode": "RH4 2BZ", 
  "address": "Surrey", 
  "latitude": "51.2315380018785"
 }, 
 {
  "hasaande": false, 
  "name": "Waverley Cmht", 
  "url": "http://www.sabp.nhs.uk", 
  "telephone": "01483 443547", 
  "longitude": "-0.487487945557702", 
  "postcode": "GU6 8AW", 
  "address": "Surrey", 
  "latitude": "51.1399547938045"
 }, 
 {
  "hasaande": false, 
  "name": "Cranleigh Cmht", 
  "url": "http://www.sabp.nhs.uk", 
  "telephone": "01483 517200", 
  "longitude": "-0.487487945557702", 
  "postcode": "GU6 8AW", 
  "address": "Surrey", 
  "latitude": "51.1399547938045"
 }, 
 {
  "hasaande": false, 
  "name": "BMI - Goring Hall Hospital", 
  "url": "http://www.bmihealthcare.co.uk/goring", 
  "telephone": "01903 506699", 
  "longitude": "-0.432236221947665", 
  "postcode": "BN12 5AT", 
  "address": "West Sussex", 
  "latitude": "50.8115257641524"
 }, 
 {
  "hasaande": false, 
  "name": "Sussex Community Dermatology Service (Horsham Hospital)", 
  "url": "http://sussexcds.co.uk/community-clinics/horsham-hospital.htm", 
  "telephone": "01273 764253", 
  "longitude": "-0.323897962364653", 
  "postcode": "RH12 2DR", 
  "address": "West Sussex", 
  "latitude": "51.0696127493163"
 }, 
 {
  "hasaande": false, 
  "name": "Horsham Hospital", 
  "telephone": "01403 227000", 
  "longitude": "-0.323897949127891", 
  "postcode": "RH12 2DR", 
  "address": "West Sussex", 
  "latitude": "51.0696112921305"
 }, 
 {
  "hasaande": true, 
  "name": "Worthing Hospital", 
  "url": "www.westernsussexhospitals.nhs.uk", 
  "telephone": "01903 205111", 
  "longitude": "-0.364879212115721", 
  "postcode": "BN11 2DH", 
  "address": "West Sussex", 
  "latitude": "50.8166828074529"
 }, 
 {
  "hasaande": false, 
  "name": "Meadowfield", 
  "url": "http://www.sussexpartnership.nhs.uk", 
  "telephone": "01903 843200", 
  "longitude": "-0.41118718393627", 
  "postcode": "BN13 3EP", 
  "address": "West Sussex", 
  "latitude": "50.8411806937009"
 }, 
 {
  "hasaande": false, 
  "name": "Oaklands House", 
  "url": "http://www.sabp.nhs.uk", 
  "telephone": "01883 383838", 
  "longitude": "-0.0994890771337452", 
  "postcode": "CR3 5YA", 
  "address": "Surrey", 
  "latitude": "51.2868246494505"
 }, 
 {
  "hasaande": false, 
  "name": "The Hawthorns", 
  "url": "http://www.sabp.nhs.uk", 
  "telephone": "01883 383713", 
  "longitude": "-0.0994890771337452", 
  "postcode": "CR3 5YA", 
  "address": "Surrey", 
  "latitude": "51.2868246494505"
 }, 
 {
  "hasaande": false, 
  "name": "Woodview", 
  "url": "http://www.sabp.nhs.uk", 
  "telephone": "01883 383760", 
  "longitude": "-0.0994890771337452", 
  "postcode": "CR3 5YA", 
  "address": "Surrey", 
  "latitude": "51.2868246494505"
 }, 
 {
  "hasaande": false, 
  "name": "Townend", 
  "url": "http://www.sabp.nhs.uk", 
  "telephone": "01883 383827", 
  "longitude": "-0.0886638493167183", 
  "postcode": "CR3 5UJ", 
  "address": "Surrey", 
  "latitude": "51.2891540626222"
 }, 
 {
  "hasaande": false, 
  "name": "Pastoral and Spiritual Care", 
  "url": "http://www.sabp.nhs.uk", 
  "telephone": "01737 789824", 
  "longitude": "-0.169609965533041", 
  "postcode": "RH1 6JG", 
  "address": "Surrey", 
  "latitude": "51.2261592279072"
 }, 
 {
  "hasaande": false, 
  "name": "Coulsdon Lodge", 
  "url": "http://www.sabp.nhs.uk", 
  "telephone": "01883 383687", 
  "longitude": "-0.0994890771337452", 
  "postcode": "CR3 5YA", 
  "address": "Surrey", 
  "latitude": "51.2868246494505"
 }, 
 {
  "hasaande": false, 
  "name": "Holland House", 
  "url": "http://www.sabp.nhs.uk", 
  "telephone": "01883 383715", 
  "longitude": "-0.0994890771337452", 
  "postcode": "CR3 5YA", 
  "address": "Surrey", 
  "latitude": "51.2868246494505"
 }, 
 {
  "hasaande": false, 
  "name": "Holly Tree", 
  "url": "http://www.sabp.nhs.uk", 
  "telephone": "01883 383592", 
  "longitude": "-0.0994890771337452", 
  "postcode": "CR3 5YA", 
  "address": "Surrey", 
  "latitude": "51.2868246494505"
 }, 
 {
  "hasaande": false, 
  "name": "Caterham Dene Hospital", 
  "telephone": "01883 837500", 
  "longitude": "-0.0861722679104593", 
  "postcode": "CR3 5RA", 
  "address": "Surrey", 
  "latitude": "51.2834713452326"
 }, 
 {
  "hasaande": false, 
  "name": "North and South Tandridge Primary Care Mental Health Team", 
  "url": "http://www.sabp.nhs.uk", 
  "telephone": "01883 385481", 
  "longitude": "-0.0855708623625926", 
  "postcode": "CR3 5RA", 
  "address": "Surrey", 
  "latitude": "51.2840726582827"
 }, 
 {
  "hasaande": false, 
  "name": "A&amp;e Liaison", 
  "url": "http://www.sabp.nhs.uk", 
  "telephone": "01883 383838", 
  "longitude": "-0.169047", 
  "postcode": "RH1 6JJ", 
  "address": "Surrey", 
  "latitude": "51.224089"
 }, 
 {
  "hasaande": true, 
  "name": "East Surrey Hospital", 
  "url": "http://www.surreyandsussex.nhs.uk/esh", 
  "telephone": "01737 768511", 
  "longitude": "-0.161261620077646", 
  "postcode": "RH1 5RH", 
  "address": "Surrey", 
  "latitude": "51.2186357745364"
 }, 
 {
  "hasaande": false, 
  "name": "Older People's Psychiatry", 
  "url": "http://www.sabp.nhs.uk", 
  "telephone": "01883 383838", 
  "longitude": "-0.163495408515873", 
  "postcode": "RH1 5RH", 
  "address": "Surrey", 
  "latitude": "51.2195817557365"
 }, 
 {
  "hasaande": false, 
  "name": "Spire Gatwick Park Hospital", 
  "url": "http://www.spirehealthcare.com/gatwickpark", 
  "telephone": "01293 778919", 
  "longitude": "-0.183341714013808", 
  "postcode": "RH6 0BB", 
  "address": "Surrey", 
  "latitude": "51.167641582193"
 }, 
 {
  "hasaande": false, 
  "name": "North Downs Hospital", 
  "url": "http://www.northdownshospital.co.uk", 
  "telephone": "01883 348981", 
  "longitude": "-0.090582122185161165", 
  "postcode": "CR3 6DP", 
  "address": "Surrey", 
  "latitude": "51.297579100963411"
 }, 
 {
  "hasaande": false, 
  "name": "Victoria Hospital (Deal)", 
  "url": "http://www.kentandmedway.nhs.uk/local_nhs_services/hospitals/victoria_hospital__deal.asp", 
  "telephone": "01304 865400", 
  "longitude": "1.38949665231548", 
  "postcode": "CT14 9UA", 
  "address": "Kent", 
  "latitude": "51.2194110010072"
 }, 
 {
  "hasaande": false, 
  "name": "Gravesend Community Hospital", 
  "longitude": "0.365652496349766", 
  "postcode": "DA11 0DG", 
  "address": "Kent", 
  "latitude": "51.4431714133113"
 }, 
 {
  "hasaande": false, 
  "name": "Gravesend and North Kent Hospital", 
  "longitude": "0.365652496349766", 
  "postcode": "DA11 0DG", 
  "address": "Kent", 
  "latitude": "51.4431714133113"
 }, 
 {
  "hasaande": false, 
  "name": "Sussex Community Dermatology Service (Crawley Hospital)", 
  "url": "http://sussexcds.co.uk/community-clinics/crawley-hospital.htm", 
  "telephone": "01273 764253", 
  "longitude": "-0.197517618864334", 
  "postcode": "RH11 7DH", 
  "address": "West Sussex", 
  "latitude": "51.1165497245832"
 }, 
 {
  "hasaande": false, 
  "name": "Crawley Hospital", 
  "url": "http://www.surreyandsussex.nhs.uk/crawley", 
  "telephone": "01293 600300", 
  "longitude": "-0.197517624893823", 
  "postcode": "RH11 7DH", 
  "address": "West Sussex", 
  "latitude": "51.1165483521067"
 }, 
 {
  "hasaande": false, 
  "name": "Queen Victoria Memorial Hospital (Herne Bay)", 
  "telephone": "01227 594700", 
  "longitude": "1.14292180735786", 
  "postcode": "CT6 6EB", 
  "address": "Kent", 
  "latitude": "51.3678378418606"
 }, 
 {
  "hasaande": false, 
  "name": "Sheppey Community Hospital (New)", 
  "longitude": "0.792905721771937", 
  "postcode": "ME12 3LT", 
  "address": "Kent", 
  "latitude": "51.4155876943482"
 }, 
 {
  "hasaande": false, 
  "name": "Whitstable and Tankerton Hospital", 
  "telephone": "01227 594 400", 
  "longitude": "1.05013400764835", 
  "postcode": "CT5 2HN", 
  "address": "Kent", 
  "latitude": "51.361301350825"
 }, 
 {
  "hasaande": false, 
  "name": "Southlands Hospital", 
  "url": "http://www.westernsussexhospitals.nhs.uk/", 
  "telephone": "(01903) 205111", 
  "longitude": "-0.256283158104682", 
  "postcode": "BN43 6TQ", 
  "address": "West Sussex", 
  "latitude": "50.8409211033416"
 }, 
 {
  "hasaande": false, 
  "name": "St Bartholomews Hospital", 
  "telephone": "01634 810900", 
  "longitude": "0.514800162284588", 
  "postcode": "ME1 1DS", 
  "address": "Kent", 
  "latitude": "51.3825432391438"
 }, 
 {
  "hasaande": false, 
  "name": "Sussex Community Dermatology Service (Hove)", 
  "url": "http://sussexcds.co.uk/community-clinics/hove-skin-clinic.htm", 
  "telephone": "01273 764253", 
  "longitude": "-0.179303731219939", 
  "postcode": "BN3 4AA", 
  "address": "East Sussex", 
  "latitude": "50.8291437097905"
 }, 
 {
  "hasaande": false, 
  "name": "Priory Hospital Hove", 
  "url": "http://www.prioryhealthcare.com/brighton", 
  "telephone": "01273 747 464", 
  "longitude": "-0.179733319739205", 
  "postcode": "BN3 4FH", 
  "address": "East Sussex", 
  "latitude": "50.8287173502933"
 }, 
 {
  "hasaande": false, 
  "name": "Mill View Hospital", 
  "url": "http://www.sussexpartnership.nhs.uk", 
  "telephone": "01273 696011", 
  "longitude": "-0.189785303804626", 
  "postcode": "BN3 7HY", 
  "address": "East Sussex", 
  "latitude": "50.8419542569047"
 }, 
 {
  "hasaande": false, 
  "name": "St Martins Hospital", 
  "longitude": "1.11096153796237", 
  "postcode": "CT1 1AZ", 
  "address": "Kent", 
  "latitude": "51.277798873127"
 }, 
 {
  "hasaande": false, 
  "name": "Will Adams NHS Treatment Centre", 
  "url": "http://www.willadamstreatmentcentre.nhs.uk", 
  "telephone": "0333 200 1730", 
  "longitude": "0.576548", 
  "postcode": "ME8 6AD", 
  "address": "Kent", 
  "latitude": "51.380844"
 }, 
 {
  "hasaande": false, 
  "name": "Medway Hospital", 
  "url": "http://www.kentandmedway.nhs.uk/structure_and_organisations/hospital_trusts/medway_nhs_trust/contact.asp", 
  "telephone": "01634 830000", 
  "longitude": "0.542206990020352", 
  "postcode": "ME7 5NY", 
  "address": "Kent", 
  "latitude": "51.3782436350613"
 }, 
 {
  "hasaande": true, 
  "name": "Medway Maritime Hospital", 
  "url": "http://www.medway.nhs.uk", 
  "telephone": "01634 830 000", 
  "longitude": "0.542206990020352", 
  "postcode": "ME7 5NY", 
  "address": "Kent", 
  "latitude": "51.3782436350613"
 }, 
 {
  "hasaande": false, 
  "name": "The Kleinwort Centre", 
  "telephone": "01444 445600", 
  "longitude": "-0.116156504882124", 
  "postcode": "RH16 4BE", 
  "address": "West Sussex", 
  "latitude": "51.0000184946772"
 }, 
 {
  "hasaande": false, 
  "name": "Sussex Community Dermatology Service (Dolphins Surgery)", 
  "url": "http://www.sussexcds.co.uk", 
  "telephone": "01273 764253", 
  "longitude": "-0.11606", 
  "postcode": "RH16 4BN", 
  "address": "West Sussex", 
  "latitude": "51.0003"
 }, 
 {
  "hasaande": true, 
  "name": "Royal Sussex County Hospital", 
  "url": "http://www.bsuh.nhs.uk", 
  "telephone": "01273 696955", 
  "longitude": "-0.11813255064616", 
  "postcode": "BN2 5BE", 
  "address": "East Sussex", 
  "latitude": "50.819428293022"
 }, 
 {
  "hasaande": true, 
  "name": "Sussex Eye Hospital", 
  "url": "http://www.bsuh.nhs.uk", 
  "telephone": "01273 606126", 
  "longitude": "-0.11761705812681", 
  "postcode": "BN2 5BF", 
  "address": "East Sussex", 
  "latitude": "50.8187418590105"
 }, 
 {
  "hasaande": false, 
  "name": "Kent and Canterbury Hospital", 
  "url": "http://www.ekhut.nhs.uk/home-page/patients-and-public/our-hospitals/kent-and-canterbury-hospital/", 
  "telephone": "01227 766877", 
  "longitude": "1.08716323790334", 
  "postcode": "CT1 3NG", 
  "address": "Kent", 
  "latitude": "51.2665324760911"
 }, 
 {
  "hasaande": false, 
  "name": "Buckland Hospital", 
  "url": "http://www.ekhut.nhs.uk/home-page/patients-and-public/our-hospitals/buckland-hospital/", 
  "telephone": "01304 201624", 
  "longitude": "1.29052304909548", 
  "postcode": "CT17 0HD", 
  "address": "Kent", 
  "latitude": "51.1312571644844"
 }, 
 {
  "hasaande": false, 
  "name": "Edenbridge War Memorial Hospital", 
  "longitude": "0.066669689931906", 
  "postcode": "TN8 5DA", 
  "address": "Kent", 
  "latitude": "51.1905910178043"
 }, 
 {
  "hasaande": false, 
  "name": "Mcindoe Surgical Centre", 
  "telephone": "01342 330300", 
  "longitude": "-0.00274926677468767", 
  "postcode": "RH19 3DZ", 
  "address": "West Sussex", 
  "latitude": "51.1351321418734"
 }, 
 {
  "hasaande": false, 
  "name": "Queen Victoria Hospital (East Grinstead)", 
  "url": "http://www.qvh.nhs.uk", 
  "telephone": "01342 414000", 
  "longitude": "-0.00274926682559166", 
  "postcode": "RH19 3DZ", 
  "address": "West Sussex", 
  "latitude": "51.1351332968383"
 }, 
 {
  "hasaande": false, 
  "name": "BMI - The Chaucer Hospital", 
  "url": "http://www.bmihealthcare.co.uk/chaucer", 
  "telephone": "01227 825100", 
  "longitude": "1.08750677507425", 
  "postcode": "CT4 7AR", 
  "address": "Kent", 
  "latitude": "51.2616386455508"
 }, 
 {
  "hasaande": false, 
  "name": "The Royal Alexandra Children's Hospital", 
  "url": "http://www.bsuh.nhs.uk", 
  "telephone": "01273 696955", 
  "longitude": "-0.146570256698919", 
  "postcode": "BN2 5BE", 
  "address": "East Sussex", 
  "latitude": "50.8276825766339"
 }, 
 {
  "hasaande": false, 
  "name": "Sussex Orthopaedic NHS Treatment Centre", 
  "url": "http://www.sussexorthopaedictreatmentcentre.nhs.uk", 
  "telephone": "0333 200 1728", 
  "longitude": "-0.0910694500035447", 
  "postcode": "RH16 4EX", 
  "address": "West Sussex", 
  "latitude": "50.9911681233176"
 }, 
 {
  "hasaande": true, 
  "name": "Princess Royal Hospital", 
  "url": "http://www.bsuh.nhs.uk", 
  "telephone": "01444 441881", 
  "longitude": "-0.0910694468442923", 
  "postcode": "RH16 4EX", 
  "address": "West Sussex", 
  "latitude": "50.9911665695128"
 }, 
 {
  "hasaande": false, 
  "name": "Brighton General Hospital", 
  "url": "http://www.southdowns.nhs.uk", 
  "telephone": "01273 696011", 
  "longitude": "-0.114180472458301", 
  "postcode": "BN2 3EW", 
  "address": "East Sussex", 
  "latitude": "50.8308620296927"
 }, 
 {
  "hasaande": false, 
  "name": "Spire Alexandra Hospital", 
  "telephone": "01634 687166", 
  "longitude": "0.52657044585437", 
  "postcode": "ME5 9PG", 
  "address": "Kent", 
  "latitude": "51.3279563672969"
 }, 
 {
  "hasaande": false, 
  "name": "Sittingbourne Hospital", 
  "url": "http://www.kentandmedway.nhs.uk", 
  "telephone": "01795 418300", 
  "longitude": "0.736803561785657", 
  "postcode": "ME10 4DT", 
  "address": "Kent", 
  "latitude": "51.3345748206028"
 }, 
 {
  "hasaande": false, 
  "name": "Sittingbourne Memorial Hospital", 
  "url": "http://www.kentandmedway.nhs.uk", 
  "telephone": "01795 418300", 
  "longitude": "0.736803561785657", 
  "postcode": "ME10 4DT", 
  "address": "Kent", 
  "latitude": "51.3345748206028"
 }, 
 {
  "hasaande": false, 
  "name": "Mid Kent NHS Treatment Centre", 
  "url": "http://www.midkenttreatmentcentre.nhs.uk", 
  "telephone": "01622 22 55 00", 
  "longitude": "0.484042806595816", 
  "postcode": "ME16 9QQ", 
  "address": "Kent", 
  "latitude": "51.2735880615037"
 }, 
 {
  "hasaande": false, 
  "name": "Maidstone Hospital", 
  "url": "http://www.kentandmedway.nhs.uk/local_nhs_services/hospitals/maidstone_hospital.asp", 
  "telephone": "01622 729000", 
  "longitude": "0.484042806595816", 
  "postcode": "ME16 9QQ", 
  "address": "Kent", 
  "latitude": "51.2735846464091"
 }, 
 {
  "hasaande": true, 
  "name": "Maidstone District General Hospital", 
  "url": "http://www.mtw.nhs.uk/your-visit/maidstone2.asp", 
  "telephone": "01622 729 000", 
  "longitude": "0.484042806595816", 
  "postcode": "ME16 9QQ", 
  "address": "Kent", 
  "latitude": "51.2735846464091"
 }, 
 {
  "hasaande": false, 
  "name": "BMI - The Somerfield Hospital", 
  "url": "http://www.bmihealthcare.co.uk/somerfield", 
  "telephone": "01622 208000", 
  "longitude": "0.507583373735381", 
  "postcode": "ME16 0DU", 
  "address": "Kent", 
  "latitude": "51.2773685712093"
 }, 
 {
  "hasaande": false, 
  "name": "Preston Hall Hospital", 
  "telephone": "01622 710161", 
  "longitude": "0.477427394858688", 
  "postcode": "ME20 7NJ", 
  "address": "Kent", 
  "latitude": "51.2953422140101"
 }, 
 {
  "hasaande": false, 
  "name": "Spire Tunbridge Wells Hospital", 
  "url": "http://www.spirehealthcare.com/tunbridgewells", 
  "telephone": "01892 740 047", 
  "longitude": "0.188152941953846", 
  "postcode": "TN3 0RD", 
  "address": "Kent", 
  "latitude": "51.1345288250969"
 }, 
 {
  "hasaande": false, 
  "name": "Royal Victoria Hospital (Folkestone)", 
  "url": "http://www.ekhut.nhs.uk/home-page/patients-and-public/our-hospitals/royal-victoria-hospital/", 
  "telephone": "01303 850202", 
  "longitude": "1.17196078350099", 
  "postcode": "CT19 5BN", 
  "address": "Kent", 
  "latitude": "51.085942274436"
 }, 
 {
  "hasaande": false, 
  "name": "Lewes Victoria Hospital", 
  "telephone": "01273 474153", 
  "longitude": "-0.00567036185071643", 
  "postcode": "BN7 1PE", 
  "address": "East Sussex", 
  "latitude": "50.8751626366493"
 }, 
 {
  "hasaande": false, 
  "name": "Oakwood M.H.", 
  "url": "http://www.kmpt.nhs.uk", 
  "telephone": "01622 725000", 
  "longitude": "0.486448432077443", 
  "postcode": "ME16 9PH", 
  "address": "Kent", 
  "latitude": "51.2733283666167"
 }, 
 {
  "hasaande": false, 
  "name": "Spire St Saviours Hospital", 
  "url": "http://www.spirehealthcare.com/stsaviours", 
  "telephone": "01303 265581", 
  "longitude": "1.05468739594722", 
  "postcode": "CT21 5BU", 
  "address": "Kent", 
  "latitude": "51.0767385945294"
 }, 
 {
  "hasaande": false, 
  "name": "The Horder Centre", 
  "url": "http://www.hordercentre.co.uk", 
  "telephone": "01892 665577", 
  "longitude": "0.142790053818221", 
  "postcode": "TN6 1XP", 
  "address": "East Sussex", 
  "latitude": "51.0635973105663"
 }, 
 {
  "hasaande": false, 
  "name": "The Horder Centre - St Johns Road", 
  "telephone": "01892 665577", 
  "longitude": "0.14372516419075", 
  "postcode": "TN6 1XP", 
  "address": "East Sussex", 
  "latitude": "51.0626269836464"
 }, 
 {
  "hasaande": false, 
  "name": "Tonbridge Cottage Hospital", 
  "longitude": "0.273466126813191", 
  "postcode": "TN11 0NE", 
  "address": "Kent", 
  "latitude": "51.178043960299"
 }, 
 {
  "hasaande": false, 
  "name": "Crowborough Birthing Centre", 
  "url": "http://www.esht.nhs.uk", 
  "telephone": "(01892) 652284", 
  "longitude": "0.157481443877376", 
  "postcode": "TN6 1HB", 
  "address": "East Sussex", 
  "latitude": "51.0513985927086"
 }, 
 {
  "hasaande": false, 
  "name": "Homeopathic Hospital", 
  "longitude": "0.259693343836552", 
  "postcode": "TN1 1JU", 
  "address": "Kent", 
  "latitude": "51.1323841456975"
 }, 
 {
  "hasaande": false, 
  "name": "Homoeopathic Hospital", 
  "telephone": "01892 542977", 
  "longitude": "0.259693343836552", 
  "postcode": "TN1 1JU", 
  "address": "Kent", 
  "latitude": "51.1323841456975"
 }, 
 {
  "hasaande": false, 
  "name": "Crowborough War Memorial Hospital", 
  "longitude": "0.154216693495389", 
  "postcode": "TN6 1HF", 
  "address": "East Sussex", 
  "latitude": "51.0505345737785"
 }, 
 {
  "hasaande": true, 
  "name": "Kent and Sussex Hospital", 
  "longitude": "0.259719757458732", 
  "postcode": "TN4 8AT", 
  "address": "Kent", 
  "latitude": "51.1354748062968"
 }, 
 {
  "hasaande": false, 
  "name": "Western Avenue Hospital", 
  "longitude": "0.862066936647016", 
  "postcode": "TN23 1LX", 
  "address": "Kent", 
  "latitude": "51.1517409018052"
 }, 
 {
  "hasaande": true, 
  "name": "William Harvey Hospital (Ashford)", 
  "url": "http://www.ekhut.nhs.uk/home-page/patients-and-public/our-hospitals/william-harvey-hospital/", 
  "telephone": "01233 633331", 
  "longitude": "0.916279055223907", 
  "postcode": "TN24 0LZ", 
  "address": "Kent", 
  "latitude": "51.1414990331449"
 }, 
 {
  "hasaande": false, 
  "name": "Pembury Hospital", 
  "url": "http://www.mtw.nhs.uk/", 
  "telephone": "01892 823535", 
  "longitude": "0.307316490978922", 
  "postcode": "TN2 4QJ", 
  "address": "Kent", 
  "latitude": "51.149159090299"
 }, 
 {
  "hasaande": false, 
  "name": "Uckfield Hospital", 
  "telephone": "01825 769999", 
  "longitude": "0.105417199680936", 
  "postcode": "TN22 5AW", 
  "address": "East Sussex", 
  "latitude": "50.9657411903274"
 }, 
 {
  "hasaande": false, 
  "name": "Priory Grange Heathfield", 
  "url": "http://www.priorygrange.com", 
  "telephone": "01435 864545", 
  "longitude": "0.306629176513262", 
  "postcode": "TN21 8UN", 
  "address": "East Sussex", 
  "latitude": "50.98189117262"
 }, 
 {
  "hasaande": false, 
  "name": "BMI - The Esperance Hospital", 
  "url": "http://www.bmihealthcare.co.uk/esperance", 
  "telephone": "01323 411188", 
  "longitude": "0.286668562313709", 
  "postcode": "BN21 3BG", 
  "address": "East Sussex", 
  "latitude": "50.76681876094"
 }, 
 {
  "hasaande": false, 
  "name": "Eastbourne District General Hospital", 
  "url": "http://www.sussexpartnership.nhs.uk/public/service-dir/sites/?entryid141=294645&amp;char=E", 
  "telephone": "01323 417400", 
  "longitude": "0.271146422201188", 
  "postcode": "BN21 2UD", 
  "address": "East Sussex", 
  "latitude": "50.7868658233092"
 }, 
 {
  "hasaande": false, 
  "name": "West View Hospital", 
  "telephone": "01580 261500", 
  "longitude": "0.674944993072085", 
  "postcode": "TN30 6TX", 
  "address": "Kent", 
  "latitude": "51.0643691219424"
 }, 
 {
  "hasaande": false, 
  "name": "Hawkhurst Hospital", 
  "telephone": "01580 753345", 
  "longitude": "0.488768123562701", 
  "postcode": "TN18 4PU", 
  "address": "Kent", 
  "latitude": "51.0488167812023"
 }, 
 {
  "hasaande": false, 
  "name": "Benenden Hospital", 
  "url": "http://www.benendenhospital.org.uk", 
  "telephone": "01580 240333", 
  "longitude": "0.616093468501463", 
  "postcode": "TN17 4AX", 
  "address": "Kent", 
  "latitude": "51.086625293353"
 }, 
 {
  "hasaande": false, 
  "name": "Priory Grange Ticehurst House", 
  "url": "http://www.priorygrange.com", 
  "telephone": "01580 200391", 
  "longitude": "0.398385937823215", 
  "postcode": "TN5 7HU", 
  "address": "East Sussex", 
  "latitude": "51.0495100454031"
 }, 
 {
  "hasaande": false, 
  "name": "Spire Sussex Hospital", 
  "url": "http://www.spirehealthcare.com/sussex", 
  "telephone": "0845 604 7400", 
  "longitude": "0.567723562903314", 
  "postcode": "TN37 7RE", 
  "address": "East Sussex", 
  "latitude": "50.8854010902151"
 }, 
 {
  "hasaande": true, 
  "name": "Conquest Hospital", 
  "url": "http://www.esht.nhs.uk/conquest", 
  "telephone": "01424 755255", 
  "longitude": "0.567723562903314", 
  "postcode": "TN37 7RD", 
  "address": "East Sussex", 
  "latitude": "50.8854010902151"
 }, 
 {
  "hasaande": false, 
  "name": "Bexhill Hospital", 
  "url": "http://www.esht.nhs.uk", 
  "telephone": "(01424) 755255", 
  "longitude": "0.475537246727593", 
  "postcode": "TN40 2DZ", 
  "address": "East Sussex", 
  "latitude": "50.8506388424344"
 }, 
 {
  "hasaande": true, 
  "name": "Basildon University Hospital", 
  "url": "http://www.basildonandthurrock.nhs.uk/", 
  "telephone": "0845 155 3111", 
  "longitude": "0.450621997295856", 
  "postcode": "SS16 5NL", 
  "address": "Essex", 
  "latitude": "51.5576044026658"
 }, 
 {
  "hasaande": false, 
  "name": "The Essex Cardiothoracic Centre", 
  "url": "http://www.basildonandthurrock.nhs.uk", 
  "telephone": "0845 155 3111", 
  "longitude": "0.450622006087905", 
  "postcode": "SS16 5NL", 
  "address": "Essex", 
  "latitude": "51.5576056519714"
 }, 
 {
  "hasaande": false, 
  "name": "The Phoenix Hospital, Southend", 
  "url": "http://www.phoenixhospital.co.uk", 
  "telephone": "01702 608908", 
  "longitude": "0.701598418925885", 
  "postcode": "SS0 9AG", 
  "address": "Essex", 
  "latitude": "51.55028585497"
 }, 
 {
  "hasaande": false, 
  "name": "Spire Wellesley Hospital", 
  "url": "http://www.spirehealthcare.com/Wellesley", 
  "telephone": "01702 462 944", 
  "longitude": "0.727610714132202", 
  "postcode": "SS2 4XH", 
  "address": "Essex", 
  "latitude": "51.5543429873371"
 }, 
 {
  "hasaande": true, 
  "name": "Southend Hospital", 
  "url": "http://www.southend.nhs.uk", 
  "telephone": "01702 435555", 
  "longitude": "0.689120890611887", 
  "postcode": "SS0 0RY", 
  "address": "Essex", 
  "latitude": "51.5538273080548"
 }, 
 {
  "hasaande": false, 
  "name": "Lowestoft and North Suffolk Hospital", 
  "url": "http://www.jpaget.co.uk/", 
  "telephone": "01502 587 311", 
  "longitude": "1.75334499154858", 
  "postcode": "NR32 1PT", 
  "address": "Suffolk", 
  "latitude": "52.4792120726594"
 }, 
 {
  "hasaande": false, 
  "name": "Northgate Hospital", 
  "url": "http://www.jpaget.co.uk/", 
  "telephone": "01493 452452", 
  "longitude": "1.72860156406316", 
  "postcode": "NR30 1BU", 
  "address": "Norfolk", 
  "latitude": "52.6176600071354"
 }, 
 {
  "hasaande": true, 
  "name": "James Paget Hospital", 
  "url": "http://www.jpaget.nhs.uk/", 
  "telephone": "01493 452 452", 
  "longitude": "1.71803408747838", 
  "postcode": "NR31 6LA", 
  "address": "Norfolk", 
  "latitude": "52.5616046446171"
 }, 
 {
  "hasaande": false, 
  "name": "Cromer Hospital", 
  "url": "http://www.nnuh.nhs.uk", 
  "telephone": "01263 513571", 
  "longitude": "1.3092524950167", 
  "postcode": "NR27 0BQ", 
  "address": "Norfolk", 
  "latitude": "52.9235636894929"
 }, 
 {
  "hasaande": false, 
  "name": "Carlton Court", 
  "url": "http://www.nwmhp.nhs.uk", 
  "telephone": "01502 527900", 
  "longitude": "1.69655527697282", 
  "postcode": "NR33 8AG", 
  "address": "Suffolk", 
  "latitude": "52.4531788066379"
 }, 
 {
  "hasaande": false, 
  "name": "Aldeburgh Community Hospital", 
  "longitude": "1.59560582809197", 
  "postcode": "IP15 5ES", 
  "address": "Suffolk", 
  "latitude": "52.1522235963342"
 }, 
 {
  "hasaande": false, 
  "name": "Felixstowe Community Hospital", 
  "url": "http://www.suffolkpct.nhs.uk", 
  "telephone": "01394 458820", 
  "longitude": "1.35598998540323", 
  "postcode": "IP11 7HJ", 
  "address": "Suffolk", 
  "latitude": "51.9637240356202"
 }, 
 {
  "hasaande": false, 
  "name": "Fryatt Hospital and Mayflower Medical Centre (Harwich)", 
  "telephone": ".", 
  "longitude": "1.26174159242839", 
  "postcode": "CO12 4EX", 
  "address": "Essex", 
  "latitude": "51.9342585995406"
 }, 
 {
  "hasaande": true, 
  "name": "The Ipswich Hospital NHS Trust", 
  "url": "http://www.ipswichhospital.nhs.uk/", 
  "telephone": "01473 712 233", 
  "longitude": "1.19799298230543", 
  "postcode": "IP4 5PD", 
  "address": "Suffolk", 
  "latitude": "52.0567682875887"
 }, 
 {
  "hasaande": false, 
  "name": "Nuffield Health, Ipswich Hospital", 
  "url": "http://www.nuffieldhealth.com/ipswichHospital", 
  "telephone": "0800 015 50 20", 
  "longitude": "1.22900823099623", 
  "postcode": "IP4 5SW", 
  "address": "Suffolk", 
  "latitude": "52.0474928906958"
 }, 
 {
  "hasaande": false, 
  "name": "All Hallows Hospital", 
  "url": "www.all-hallows.org.uk", 
  "telephone": "01986 892728", 
  "longitude": "1.44645797539416", 
  "postcode": "NR35 2QL", 
  "address": "Suffolk", 
  "latitude": "52.4663235056955"
 },